~VERSION INFORMATION
 VERS.                          2.0   : CWLS LOG ASCII STANDARD - VERSION 2.0
 WRAP.                          NO    : ONE LINE PER DEPTH STEP
#
~Well Information Section
#MNEM     .UNIT     DATA                DESCRIPTION
#-----    -----     --------            --------------
 STRT     .M        30.0000             : START DEPTH
 STOP     .M        3150.0000           : END DEPTH
 STEP     .M        0.0000              : INCREMENT DEPTH
 NULL     .         -999.2500           : NULL VALUE
 COMP     .                              :
 WELL     .         F02-01              : WELL NAME
 EKB      .M        30.0000             : KELLY BUSHING ELEVATION
 EGL      .M        0.0000              : GROUND LEVEL ELEVATION
 EPD      .M        0.0000              : PERMANENT DATUM ELEVATION
 FLD      .                              :
 LOC      . X = 606554.0000 Y = 6080126.0000: WELL LOCATION
 PROV     .                              :
 SRVC     .                              :
 PROV     .                              :
 DATE     .                              :
 API      .                              :
#
~Curve Information Section
#MNEM     .UNIT               Curve #DESCRIPTION
#-----    -----               ----   --------------
 DEPTH    .M                  : 1     Name = Domain Curve - Type = DEPTH
 CALI     .in                 : 2     Name = Caliper_1 - Type = Caliper
 RHOB     .g/cc               : 3     Name = Density_1 - Type = Density
 GR       .API                : 4     Name = Gamma Ray_math - Type = Gamma Ray
 DT       .us/ft              : 5     Name = P-wave_1 - Type = P-wave
 DT       .us/ft              : 6     Name = P-wave_corr - Type = P-wave
 UNKNOWN  .fraction           : 7     Name = Porosity_1 - Type = Porosity
~A (ASCII LOG DATA)
# ...
   59.2780       -999.2500       -999.2500          3.0002        159.5608        157.3394       -999.2500
   59.4300       -999.2500       -999.2500          2.8819        159.5585        157.3345       -999.2500
   59.5820       -999.2500       -999.2500          2.8819        159.5563        157.3319       -999.2500
   59.7350       -999.2500       -999.2500          3.0707        159.5540        157.3259       -999.2500
   59.8870       -999.2500       -999.2500          3.1695        159.5517        157.3237       -999.2500
   60.0400       -999.2500       -999.2500          3.4677        159.5494        157.3180       -999.2500
   60.1920       -999.2500       -999.2500          3.6249        159.5471        157.3150       -999.2500
   60.3440       -999.2500       -999.2500          4.1046        159.5448        157.3102       -999.2500
   60.4970       -999.2500       -999.2500          4.3061        159.5425        157.3065       -999.2500
   60.6490       -999.2500       -999.2500          4.8436        159.5403        157.3027       -999.2500
   60.8020       -999.2500       -999.2500          4.8436        159.5380        157.2980       -999.2500
   60.9540       -999.2500       -999.2500          4.8436        159.5357        157.2950       -999.2500
   61.1060       -999.2500       -999.2500          5.6592        159.5334        157.2895       -999.2500
   61.2590       -999.2500       -999.2500          5.6592        159.5311        157.2872       -999.2500
   61.4110       -999.2500       -999.2500          5.6592        159.5288        157.2811       -999.2500
   61.5640       -999.2500       -999.2500          4.2736        159.5265        157.2786       -999.2500
   61.7160       -999.2500       -999.2500          4.2736        159.5243        157.2735       -999.2500
   61.8680       -999.2500       -999.2500          4.2736        159.5220        157.2701       -999.2500
   62.0210       -999.2500       -999.2500          5.0658        159.5197        157.2659       -999.2500
   62.1730       -999.2500       -999.2500          5.0658        159.5174        157.2616       -999.2500
   62.3260       -999.2500       -999.2500          5.0658        159.5151        157.2583       -999.2500
   62.4780       -999.2500       -999.2500          3.7723        159.5128        157.2530       -999.2500
   62.6300       -999.2500       -999.2500          3.7723        159.5105        157.2507       -999.2500
   62.7830       -999.2500       -999.2500          3.7723        159.5083        157.2444       -999.2500
   62.9350       -999.2500       -999.2500          4.4427        159.5060        157.2420       -999.2500
   63.0880       -999.2500       -999.2500          5.6458        159.5037        157.2366       -999.2500
   63.2400       -999.2500       -999.2500          5.6458        159.5014        157.2337       -999.2500
   63.3920       -999.2500       -999.2500          5.6458        159.4991        157.2291       -999.2500
   63.5450       -999.2500       -999.2500          5.2920        159.4968        157.2250       -999.2500
   63.6970       -999.2500       -999.2500          5.2920        159.4946        157.2215       -999.2500
   63.8500       -999.2500       -999.2500          5.2920        159.4922        157.2164       -999.2500
   64.0020       -999.2500       -999.2500          5.4499        159.4900        157.2137       -999.2500
   64.1540       -999.2500       -999.2500          5.4499        159.4877        157.2080       -999.2500
   64.3070       -999.2500       -999.2500          5.4499        159.4854        157.2057       -999.2500
   64.4590       -999.2500       -999.2500          5.2047        159.4831        157.1999       -999.2500
   64.6120       -999.2500       -999.2500          5.2047        159.4808        157.1971       -999.2500
   64.7640       -999.2500       -999.2500          5.2047        159.4785        157.1922       -999.2500
   64.9160       -999.2500       -999.2500          5.7326        159.4763        157.1886       -999.2500
   65.0690       -999.2500       -999.2500          5.8674        159.4740        157.1847       -999.2500
   65.2210       -999.2500       -999.2500          5.8674        159.4717        157.1799       -999.2500
   65.3740       -999.2500       -999.2500          6.5441        159.4694        157.1769       -999.2500
   65.5260       -999.2500       -999.2500          6.6743        159.4671        157.1715       -999.2500
   65.6780       -999.2500       -999.2500          6.5441        159.4648        157.1692       -999.2500
   65.8310       -999.2500       -999.2500          5.6942        159.4625        157.1632       -999.2500
   65.9830       -999.2500       -999.2500          5.6942        159.4603        157.1607       -999.2500
   66.1360       -999.2500       -999.2500          4.2960        159.4580        157.1554       -999.2500
   66.2880       -999.2500       -999.2500          3.2812        159.4557        157.1522       -999.2500
   66.4400       -999.2500       -999.2500          3.2687        159.4534        157.1478       -999.2500
   66.5930       -999.2500       -999.2500          2.6827        159.4511        157.1435       -999.2500
   66.7450       -999.2500       -999.2500          3.1111        159.4488        157.1403       -999.2500
   66.8980       -999.2500       -999.2500          3.1111        159.4465        157.1350       -999.2500
   67.0500       -999.2500       -999.2500          3.1111        159.4442        157.1325       -999.2500
   67.2020       -999.2500       -999.2500          3.8857        159.4420        157.1265       -999.2500
   67.3550       -999.2500       -999.2500          4.5660        159.4397        157.1242       -999.2500
   67.5070       -999.2500       -999.2500          4.5660        159.4374        157.1189       -999.2500
   67.6600       -999.2500       -999.2500          4.5909        159.4351        157.1156       -999.2500
   67.8120       -999.2500       -999.2500          4.8663        159.4328        157.1111       -999.2500
   67.9640       -999.2500       -999.2500          4.5660        159.4305        157.1070       -999.2500
   68.1170       -999.2500       -999.2500          4.1790        159.4282        157.1036       -999.2500
   68.2690       -999.2500       -999.2500          4.1790        159.4260        157.0986       -999.2500
   68.4220       -999.2500       -999.2500          3.7182        159.4237        157.0958       -999.2500
   68.5740       -999.2500       -999.2500          3.7182        159.4214        157.0900       -999.2500
   68.7260       -999.2500       -999.2500          3.6759        159.4191        157.0878       -999.2500
   68.8790       -999.2500       -999.2500          3.7182        159.4168        157.0820       -999.2500
   69.0310       -999.2500       -999.2500          3.8414        159.4145        157.0793       -999.2500
   69.1840       -999.2500       -999.2500          4.0648        159.4122        157.0744       -999.2500
   69.3360       -999.2500       -999.2500          4.0648        159.4100        157.0706       -999.2500
   69.4880       -999.2500       -999.2500          4.8091        159.4077        157.0668       -999.2500
   69.6410       -999.2500       -999.2500          4.8091        159.4054        157.0622       -999.2500
   69.7930       -999.2500       -999.2500          4.8091        159.4031        157.0592       -999.2500
   69.9460       -999.2500       -999.2500          4.8091        159.4008        157.0535       -999.2500
   70.0980       -999.2500       -999.2500          5.1384        159.3985        157.0513       -999.2500
   70.2500       -999.2500       -999.2500          4.8476        159.3963        157.0453       -999.2500
   70.4030       -999.2500       -999.2500          4.8476        159.3940        157.0428       -999.2500
   70.5550       -999.2500       -999.2500          5.9928        159.3917        157.0376       -999.2500
