~VERSION INFORMATION
 VERS.                          2.0   : CWLS LOG ASCII STANDARD - VERSION 2.0
 WRAP.                          NO    : ONE LINE PER DEPTH STEP
#
~Well Information Section
#MNEM     .UNIT     DATA                DESCRIPTION
#-----    -----     --------            --------------
 STRT     .M        30.0000             : START DEPTH
 STOP     .M        3150.0000           : END DEPTH
 STEP     .M        0.0000              : INCREMENT DEPTH
 NULL     .         -999.2500           : NULL VALUE
 COMP     .                              :
 WELL     .         F02-01              : WELL NAME
 EKB      .M        30.0000             : KELLY BUSHING ELEVATION
 EGL      .M        0.0000              : GROUND LEVEL ELEVATION
 EPD      .M        0.0000              : PERMANENT DATUM ELEVATION
 FLD      .                              :
 LOC      . X = 606554.0000 Y = 6080126.0000: WELL LOCATION
 PROV     .                              :
 SRVC     .                              :
 PROV     .                              :
 DATE     .                              :
 API      .                              :
#
~Curve Information Section
#MNEM     .UNIT               Curve #DESCRIPTION
#-----    -----               ----   --------------
 DEPTH    .M                  : 1     Name = Domain Curve - Type = DEPTH
 CALI     .in                 : 2     Name = Caliper_1 - Type = Caliper
 RHOB     .g/cc               : 3     Name = Density_1 - Type = Density
 GR       .API                : 4     Name = Gamma Ray_math - Type = Gamma Ray
 DT       .us/ft              : 5     Name = P-wave_1 - Type = P-wave
 DT       .us/ft              : 6     Name = P-wave_corr - Type = P-wave
 UNKNOWN  .fraction           : 7     Name = Porosity_1 - Type = Porosity
~A (ASCII LOG DATA)
# ...
  447.8980         16.1000          1.5612         37.7652        156.9443        151.7493       -999.2500
  448.0500         16.1000          1.5303         37.7652        158.5180        153.3233       -999.2500
  448.2020         16.1000          1.4662         34.4549        159.2706        154.0851       -999.2500
  448.3550         16.1000          1.4755         34.4549        159.5564        154.3701       -999.2500
  448.5070         16.1000          1.5158         34.4549        156.6932        151.5148       -999.2500
  448.6600         16.1000          1.5582         36.0624        155.0805        149.9057       -999.2500
  448.8120         16.1000          1.6361         37.3838        151.3755        146.2055       -999.2500
  448.9640         16.1000          1.7552         37.3838        149.5227        144.3574       -999.2500
  449.1170         16.1000          1.8207         37.3838        150.5977        145.4364       -999.2500
  449.2690         16.1000          1.7858         36.3708        151.7469        146.5910       -999.2500
  449.4220         16.1000          1.5962         35.3327        154.8036        149.6518       -999.2500
  449.5740         16.1000          1.5991         33.0849        160.3603        155.2163       -999.2500
  449.7260         16.1000          1.6665         32.8546        162.5453        157.4010       -999.2500
  449.8790         16.1000          1.6663         32.8546        167.8901        162.7547       -999.2500
  450.0310         16.1000          1.5790         32.8546        166.3552        161.2210       -999.2500
  450.1840         16.1000          1.5567         33.6348        162.0504        156.9255       -999.2500
  450.3360         16.1000          1.6248         33.6348        154.8126        149.6912       -999.2500
  450.4880         16.1000          1.7367         33.6348        151.9146        146.7987       -999.2500
  450.6410         16.1000          1.7205         30.8119        152.5544        147.4449       -999.2500
  450.7930         16.1000          1.6698         28.1374        154.2420        149.1343       -999.2500
  450.9460         16.1000          1.6762         28.1374        158.4270        153.3290       -999.2500
  451.0980         16.1000          1.7520         28.1374        164.6548        159.5549       -999.2500
  451.2500         16.1000          1.7462         30.1652        165.7037        160.6196       -999.2500
  451.4030         16.1000          1.7810         33.7498        167.2384        162.1501       -999.2500
  451.5550         16.1000          1.8370         35.6885        170.6125        165.5363       -999.2500
  451.7080         16.1000          1.8556         35.6885        171.6099        166.5357       -999.2500
  451.8600         16.1000          1.8733         36.4369        169.0357        163.9682       -999.2500
  452.0120         16.1000          1.8822         36.4369        165.9456        160.8843       -999.2500
  452.1650         16.1000          1.9399         35.4499        163.9369        158.8803       -999.2500
  452.3170         16.1000          1.9389         32.8235        164.2142        159.1646       -999.2500
  452.4700         16.1000          1.8996         31.4443        162.6195        157.5701       -999.2500
  452.6220         16.1000          1.8088         31.4443        161.7678        156.7306       -999.2500
  452.7740         16.1000          1.6990         31.4443        159.8312        154.7940       -999.2500
  452.9270         16.1000          1.5946         31.8264        157.9903        152.9642       -999.2500
  453.0790         16.1000          1.6183         33.9447        159.0224        153.9986       -999.2500
  453.2320         16.1000          1.7250         37.3728        157.7485        152.7331       -999.2500
  453.3840         16.1000          1.8233         38.1613        153.6464        148.6340       -999.2500
  453.5360         16.1000          1.7973         38.1613        151.1906        146.1834       -999.2500
  453.6890         16.1000          1.8201         38.1613        147.1192        142.1196       -999.2500
  453.8410         16.1000          1.8364         35.5718        147.2777        142.2827       -999.2500
  453.9940         16.1000          1.8590         32.2765        151.1425        146.1556       -999.2500
  454.1460         16.1000          1.8870         28.8628        156.1606        151.1744       -999.2500
  454.2980         16.1000          1.9024         26.5475        162.0918        157.1193       -999.2500
  454.4510         16.1000          1.8761         26.5475        163.8577        158.8851       -999.2500
  454.6030         16.1000          1.8057         26.5475        165.6479        160.6837       -999.2500
  454.7560         16.1000          1.7485         27.9388        163.5419        158.5827       -999.2500
  454.9080         16.1000          1.7244         28.7879        157.1171        152.1646       -999.2500
  455.0600         16.1000          1.6494         36.4481        155.5223        150.5746       -999.2500
  455.2130         16.1000          1.6915         38.6193        152.4353        147.4913       -999.2500
  455.3650         16.1000          1.7829         39.5129        153.3488        148.4159       -999.2500
  455.5180         16.1000          1.8433         39.5129        154.9006        149.9678       -999.2500
  455.6700         16.1000          1.8327         40.1370        154.4536        149.5336       -999.2500
  455.8220         16.1000          1.7360         39.5129        153.8539        148.9346       -999.2500
  455.9750         16.1000          1.7821         39.3050        153.9221        149.0129       -999.2500
  456.1270         16.1000          1.7796         38.7243        158.7014        153.7950       -999.2500
  456.2800         16.1000          1.7330         35.8770        162.8606        157.9625       -999.2500
  456.4320         16.1000          1.5802         31.7952        165.1524        160.2598       -999.2500
  456.5840         16.1000          1.4635         31.7952        167.0846        162.1953       -999.2500
  456.7370         16.1000          1.5055         31.7952        165.4909        160.6108       -999.2500
  456.8890         16.1000          1.5877         32.8353        164.0059        159.1274       -999.2500
  457.0420         16.1000          1.7117         32.8353        165.1366        160.2715       -999.2500
  457.1940         16.1000          1.7001         32.8353        166.4452        161.5797       -999.2500
  457.3460         16.1000          1.6263         30.7169        166.0998        161.2452       -999.2500
  457.4990         16.1000          1.5651         27.8574        163.2870        158.4357       -999.2500
  457.6510         16.1000          1.5836         27.8574        163.8231        158.9803       -999.2500
  457.8040         16.1000          1.5615         27.8574        165.4764        160.6372       -999.2500
  457.9560         16.1000          1.5712         30.1809        169.0419        164.2086       -999.2500
  458.1080         16.1000          1.6398         33.0589        174.7911        169.9668       -999.2500
  458.2610         16.1000          1.7356         36.3624        173.5909        168.7686       -999.2500
  458.4130         16.1000          1.8559         40.9555        168.4855        163.6749       -999.2500
  458.5660         16.1000          1.9597         43.2342        164.8044        159.9937       -999.2500
  458.7180         16.1000          2.0230         47.7145        162.9671        158.1703       -999.2500
  458.8700         16.1000          2.0600         52.9526        163.4236        158.6272       -999.2500
  459.0230         16.1000          2.0690         58.8962        163.9468        159.1596       -999.2500
  459.1750         16.1000          2.0690         59.7281        161.9649        157.1812       -999.2500
