~VERSION INFORMATION
 VERS.                          2.0   : CWLS LOG ASCII STANDARD - VERSION 2.0
 WRAP.                          NO    : ONE LINE PER DEPTH STEP
#
~Well Information Section
#MNEM     .UNIT     DATA                DESCRIPTION
#-----    -----     --------            --------------
 STRT     .M        30.0000             : START DEPTH
 STOP     .M        3150.0000           : END DEPTH
 STEP     .M        0.0000              : INCREMENT DEPTH
 NULL     .         -999.2500           : NULL VALUE
 COMP     .                              :
 WELL     .         F02-01              : WELL NAME
 EKB      .M        30.0000             : KELLY BUSHING ELEVATION
 EGL      .M        0.0000              : GROUND LEVEL ELEVATION
 EPD      .M        0.0000              : PERMANENT DATUM ELEVATION
 FLD      .                              :
 LOC      . X = 606554.0000 Y = 6080126.0000: WELL LOCATION
 PROV     .                              :
 SRVC     .                              :
 PROV     .                              :
 DATE     .                              :
 API      .                              :
#
~Curve Information Section
#MNEM     .UNIT               Curve #DESCRIPTION
#-----    -----               ----   --------------
 DEPTH    .M                  : 1     Name = Domain Curve - Type = DEPTH
 CALI     .in                 : 2     Name = Caliper_1 - Type = Caliper
 RHOB     .g/cc               : 3     Name = Density_1 - Type = Density
 GR       .API                : 4     Name = Gamma Ray_math - Type = Gamma Ray
 DT       .us/ft              : 5     Name = P-wave_1 - Type = P-wave
 DT       .us/ft              : 6     Name = P-wave_corr - Type = P-wave
 UNKNOWN  .fraction           : 7     Name = Porosity_1 - Type = Porosity
~A (ASCII LOG DATA)
# ...
  150.7180       -999.2500       -999.2500         16.3963        158.1892        154.9509       -999.2500
  150.8700       -999.2500       -999.2500         16.3963        158.1870        154.9465       -999.2500
  151.0220       -999.2500       -999.2500         16.4306        158.1847        154.9440       -999.2500
  151.1750       -999.2500       -999.2500         16.0667        158.1824        154.9388       -999.2500
  151.3270       -999.2500       -999.2500         16.0667        158.1801        154.9364       -999.2500
  151.4800       -999.2500       -999.2500         16.4306        158.1778        154.9308       -999.2500
  151.6320       -999.2500       -999.2500         16.8378        158.1755        154.9286       -999.2500
  151.7840       -999.2500       -999.2500         16.8378        158.1732        154.9236       -999.2500
  151.9370       -999.2500       -999.2500         16.8378        158.1709        154.9206       -999.2500
  152.0890       -999.2500       -999.2500         16.8378        158.1687        154.9163       -999.2500
  152.2420       -999.2500       -999.2500         16.8378        158.1664        154.9126       -999.2500
  152.3940       -999.2500       -999.2500         16.5336        158.1641        154.9094       -999.2500
  152.5460       -999.2500       -999.2500         16.5336        158.1618        154.9044       -999.2500
  152.6990       -999.2500       -999.2500         16.2791        158.1595        154.9021       -999.2500
  152.8510       -999.2500       -999.2500         15.2287        158.1572        154.8968       -999.2500
  153.0040       -999.2500       -999.2500         15.1415        158.1549        154.8943       -999.2500
  153.1560       -999.2500       -999.2500         14.1590        158.1527        154.8890       -999.2500
  153.3080       -999.2500       -999.2500         14.3247        158.1504        154.8862       -999.2500
  153.4610       -999.2500       -999.2500         14.3247        158.1481        154.8822       -999.2500
  153.6130       -999.2500       -999.2500         14.3247        158.1458        154.8782       -999.2500
  153.7660       -999.2500       -999.2500         15.6282        158.1435        154.8750       -999.2500
  153.9180       -999.2500       -999.2500         16.3128        158.1412        154.8701       -999.2500
  154.0700       -999.2500       -999.2500         16.3564        158.1389        154.8678       -999.2500
  154.2230       -999.2500       -999.2500         17.5544        158.1367        154.8622       -999.2500
  154.3750       -999.2500       -999.2500         17.6886        158.1344        154.8600       -999.2500
  154.5280       -999.2500       -999.2500         17.7473        158.1321        154.8549       -999.2500
  154.6800       -999.2500       -999.2500         18.2962        158.1298        154.8523       -999.2500
  154.8320       -999.2500       -999.2500         18.2962        158.1275        154.8475       -999.2500
  154.9850       -999.2500       -999.2500         18.1793        158.1252        154.8443       -999.2500
  155.1370       -999.2500       -999.2500         18.1793        158.1229        154.8405       -999.2500
  155.2900       -999.2500       -999.2500         17.9320        158.1207        154.8366       -999.2500
  155.4420       -999.2500       -999.2500         17.3468        158.1184        154.8330       -999.2500
  155.5940       -999.2500       -999.2500         16.9793        158.1161        154.8283       -999.2500
  155.7470       -999.2500       -999.2500         16.9793        158.1138        154.8260       -999.2500
  155.8990       -999.2500       -999.2500         16.9793        158.1115        154.8206       -999.2500
  156.0520       -999.2500       -999.2500         16.9793        158.1092        154.8179       -999.2500
  156.2040       -999.2500       -999.2500         16.9793        158.1069        154.8135       -999.2500
  156.3560       -999.2500       -999.2500         16.7047        158.1047        154.8100       -999.2500
  156.5090       -999.2500       -999.2500         15.1951        158.1024        154.8063       -999.2500
  156.6610       -999.2500       -999.2500         15.1951        158.1001        154.8023       -999.2500
  156.8140       -999.2500       -999.2500         15.1951        158.0978        154.7989       -999.2500
  156.9660       -999.2500       -999.2500         15.7147        158.0955        154.7946       -999.2500
  157.1180       -999.2500       -999.2500         15.9804        158.0932        154.7921       -999.2500
  157.2710       -999.2500       -999.2500         15.9804        158.0909        154.7862       -999.2500
  157.4230       -999.2500       -999.2500         16.0775        158.0887        154.7844       -999.2500
  157.5760       -999.2500       -999.2500         16.1963        158.0864        154.7789       -999.2500
  157.7280       -999.2500       -999.2500         16.5647        158.0841        154.7761       -999.2500
  157.8800       -999.2500       -999.2500         16.8372        158.0818        154.7722       -999.2500
  158.0330       -999.2500       -999.2500         17.9198        158.0795        154.7683       -999.2500
  158.1850       -999.2500       -999.2500         18.2575        158.0772        154.7650       -999.2500
  158.3380       -999.2500       -999.2500         18.2960        158.0749        154.7604       -999.2500
  158.4900       -999.2500       -999.2500         18.2960        158.0726        154.7575       -999.2500
  158.6420       -999.2500       -999.2500         17.9198        158.0704        154.7528       -999.2500
  158.7950       -999.2500       -999.2500         17.7991        158.0681        154.7502       -999.2500
  158.9470       -999.2500       -999.2500         17.0674        158.0658        154.7449       -999.2500
  159.1000       -999.2500       -999.2500         15.5072        158.0635        154.7424       -999.2500
  159.2520       -999.2500       -999.2500         15.2753        158.0612        154.7378       -999.2500
  159.4040       -999.2500       -999.2500         14.9411        158.0589        154.7342       -999.2500
  159.5570       -999.2500       -999.2500         14.9411        158.0566        154.7307       -999.2500
  159.7090       -999.2500       -999.2500         14.9411        158.0544        154.7265       -999.2500
  159.8620       -999.2500       -999.2500         15.7246        158.0521        154.7233       -999.2500
  160.0140       -999.2500       -999.2500         16.5537        158.0498        154.7190       -999.2500
  160.1660       -999.2500       -999.2500         16.5537        158.0475        154.7163       -999.2500
  160.3190       -999.2500       -999.2500         16.5537        158.0452        154.7106       -999.2500
  160.4710       -999.2500       -999.2500         15.2330        158.0429        154.7085       -999.2500
  160.6240       -999.2500       -999.2500         15.2330        158.0406        154.7038       -999.2500
  160.7760       -999.2500       -999.2500         15.2330        158.0384        154.7004       -999.2500
  160.9280       -999.2500       -999.2500         16.4542        158.0361        154.6966       -999.2500
  161.0810       -999.2500       -999.2500         17.6164        158.0338        154.6929       -999.2500
  161.2330       -999.2500       -999.2500         17.7087        158.0315        154.6893       -999.2500
  161.3860       -999.2500       -999.2500         18.2483        158.0292        154.6850       -999.2500
  161.5380       -999.2500       -999.2500         18.2483        158.0269        154.6826       -999.2500
  161.6900       -999.2500       -999.2500         18.2483        158.0246        154.6768       -999.2500
  161.8430       -999.2500       -999.2500         17.0756        158.0224        154.6749       -999.2500
  161.9950       -999.2500       -999.2500         16.4952        158.0201        154.6697       -999.2500
