~VERSION INFORMATION
 VERS.                          2.0   : CWLS LOG ASCII STANDARD - VERSION 2.0
 WRAP.                          NO    : ONE LINE PER DEPTH STEP
#
~Well Information Section
#MNEM     .UNIT     DATA                DESCRIPTION
#-----    -----     --------            --------------
 STRT     .M        30.0000             : START DEPTH
 STOP     .M        3150.0000           : END DEPTH
 STEP     .M        0.0000              : INCREMENT DEPTH
 NULL     .         -999.2500           : NULL VALUE
 COMP     .                              :
 WELL     .         F02-01              : WELL NAME
 EKB      .M        30.0000             : KELLY BUSHING ELEVATION
 EGL      .M        0.0000              : GROUND LEVEL ELEVATION
 EPD      .M        0.0000              : PERMANENT DATUM ELEVATION
 FLD      .                              :
 LOC      . X = 606554.0000 Y = 6080126.0000: WELL LOCATION
 PROV     .                              :
 SRVC     .                              :
 PROV     .                              :
 DATE     .                              :
 API      .                              :
#
~Curve Information Section
#MNEM     .UNIT               Curve #DESCRIPTION
#-----    -----               ----   --------------
 DEPTH    .M                  : 1     Name = Domain Curve - Type = DEPTH
 CALI     .in                 : 2     Name = Caliper_1 - Type = Caliper
 RHOB     .g/cc               : 3     Name = Density_1 - Type = Density
 GR       .API                : 4     Name = Gamma Ray_math - Type = Gamma Ray
 DT       .us/ft              : 5     Name = P-wave_1 - Type = P-wave
 DT       .us/ft              : 6     Name = P-wave_corr - Type = P-wave
 UNKNOWN  .fraction           : 7     Name = Porosity_1 - Type = Porosity
~A (ASCII LOG DATA)
# ...
  345.0280         16.1000          1.6583         36.0896        161.9458        158.2856       -999.2500
  345.1800         16.1000          1.6789         36.1841        161.6339        157.9769       -999.2500
  345.3320         16.1000          1.6824         36.1841        161.0714        157.4144       -999.2500
  345.4850         16.1000          1.6915         36.0896        160.3817        156.7283       -999.2500
  345.6370         16.1000          1.6846         35.6775        159.9312        156.2779       -999.2500
  345.7900         16.1000          1.6435         34.8873        159.4958        155.8440       -999.2500
  345.9420         16.1000          1.6178         32.6302        158.6881        155.0398       -999.2500
  346.0940         16.1000          1.5791         31.9609        157.5546        153.9056       -999.2500
  346.2470         16.1000          1.5348         29.8519        157.8940        154.2485       -999.2500
  346.3990         16.1000          1.5112         27.4041        159.1742        155.5285       -999.2500
  346.5520         16.1000          1.4682         27.4041        158.7426        155.1013       -999.2500
  346.7040         16.1000          1.4966         27.4041        158.0173        154.3748       -999.2500
  346.8560         16.1000          1.5119         27.3219        155.9764        152.3375       -999.2500
  347.0090         16.1000          1.4843         27.3219        153.3360        149.6968       -999.2500
  347.1610         16.1000          1.4685         27.9862        153.5183        149.8808       -999.2500
  347.3140         16.1000          1.4705         27.9862        155.5627        151.9282       -999.2500
  347.4660         16.1000          1.4744         26.3958        158.7172        155.0825       -999.2500
  347.6180         16.1000          1.4881         26.3958        159.9268        156.2947       -999.2500
  347.7710         16.1000          1.5596         26.3958        159.9058        156.2749       -999.2500
  347.9230         16.1000          1.5455         23.1751        157.6083        153.9801       -999.2500
  348.0760         16.1000          1.5183         23.1751        155.9744        152.3456       -999.2500
  348.2280         16.1000          1.4814         23.1751        156.4818        152.8558       -999.2500
  348.3800         16.1000          1.4908         25.0784        156.8369        153.2109       -999.2500
  348.5330         16.1000          1.4995         26.1214        157.9945        154.3698       -999.2500
  348.6850         16.1000          1.5171         27.1473        159.2897        155.6669       -999.2500
  348.8380         16.1000          1.5823         28.5594        159.1454        155.5228       -999.2500
  348.9900         16.1000          1.6247         28.5594        158.9456        155.3265       -999.2500
  349.1420         16.1000          1.6238         28.5594        158.1204        154.5002       -999.2500
  349.2950         16.1000          1.6157         24.9413        156.9907        153.3736       -999.2500
  349.4470         16.1000          1.5735         24.6197        157.0291        153.4128       -999.2500
  349.6000         16.1000          1.5084         24.3851        157.7372        154.1228       -999.2500
  349.7520         16.1000          1.5219         24.3851        157.6780        154.0632       -999.2500
  349.9040         16.1000          1.5494         24.3851        157.4164        153.8031       -999.2500
  350.0570         16.1000          1.5156         24.5793        156.1541        152.5428       -999.2500
  350.2090         16.1000          1.5231         25.9654        155.8159        152.2043       -999.2500
  350.3620         16.1000          1.5384         26.2686        156.0377        152.4286       -999.2500
  350.5140         16.1000          1.5517         26.2686        156.7551        153.1466       -999.2500
  350.6660         16.1000          1.5272         26.2686        156.3699        152.7630       -999.2500
  350.8190         16.1000          1.5311         26.2686        156.6554        153.0487       -999.2500
  350.9710         16.1000          1.5576         26.2686        158.0979        154.4920       -999.2500
  351.1240         16.1000          1.5308         26.2827        158.8356        155.2314       -999.2500
  351.2760         16.1000          1.5544         26.2827        159.4174        155.8138       -999.2500
  351.4280         16.1000          1.5510         26.4947        160.2730        156.6709       -999.2500
  351.5810         16.1000          1.4959         26.4947        159.0810        155.4797       -999.2500
  351.7330         16.1000          1.5167         26.4947        159.9345        156.3340       -999.2500
  351.8860         16.1000          1.5133         27.5075        158.7595        155.1597       -999.2500
  352.0380         16.1000          1.5175         27.5075        156.8790        153.2801       -999.2500
  352.1900         16.1000          1.5319         27.5075        154.2886        150.6894       -999.2500
  352.3430         16.1000          1.5564         28.3225        151.4389        147.8424       -999.2500
  352.4950         16.1000          1.6321         28.5252        152.3331        148.7375       -999.2500
  352.6480         16.1000          1.7012         28.5252        151.4142        147.8182       -999.2500
  352.8000         16.1000          1.7404         29.2301        148.7189        145.1243       -999.2500
  352.9520         16.1000          1.7241         29.6841        149.2265        145.6325       -999.2500
  353.1050         16.1000          1.7664         30.1008        146.1366        142.5432       -999.2500
  353.2570         16.1000          1.7810         30.1626        146.9665        143.3727       -999.2500
  353.4100         16.1000          1.7559         30.1626        146.2801        142.6886       -999.2500
  353.5620         16.1000          1.6819         30.1008        144.9650        141.3729       -999.2500
  353.7140         16.1000          1.6651         28.9000        142.3080        138.7170       -999.2500
  353.8670         16.1000          1.6658         28.9000        141.1584        137.5679       -999.2500
  354.0190         16.1000          1.6293         28.9000        139.5814        135.9922       -999.2500
  354.1720         16.1000          1.6115         28.9000        140.6906        137.1014       -999.2500
  354.3240         16.1000          1.6284         28.9000        142.6585        139.0695       -999.2500
  354.4760         16.1000          1.6598         28.3778        144.3216        140.7325       -999.2500
  354.6290         16.1000          1.7469         28.2505        142.6357        139.0476       -999.2500
  354.7810         16.1000          1.8169         27.6286        138.8140        135.2271       -999.2500
  354.9340         16.1000          1.8150         27.5842        138.8412        135.2553       -999.2500
  355.0860         16.1000          1.7730         27.5773        140.2490        136.6615       -999.2500
  355.2380         16.1000          1.7036         27.1855        142.1131        138.5265       -999.2500
  355.3910         16.1000          1.6407         27.1830        146.2881        142.7015       -999.2500
  355.5430         16.1000          1.6039         26.1498        147.8118        144.2265       -999.2500
  355.6960         16.1000          1.6027         25.4043        148.1761        144.5906       -999.2500
  355.8480         16.1000          1.5620         25.3238        148.6786        145.0920       -999.2500
  356.0000         16.1000          1.5228         25.3238        147.4909        143.9050       -999.2500
  356.1530         16.1000          1.4606         25.3238        146.2648        142.6797       -999.2500
  356.3050         16.1000          1.4231         25.3238        145.6029        142.0177       -999.2500
