~VERSION INFORMATION
 VERS.                          2.0   : CWLS LOG ASCII STANDARD - VERSION 2.0
 WRAP.                          NO    : ONE LINE PER DEPTH STEP
#
~Well Information Section
#MNEM     .UNIT     DATA                DESCRIPTION
#-----    -----     --------            --------------
 STRT     .M        30.0000             : START DEPTH
 STOP     .M        3150.0000           : END DEPTH
 STEP     .M        0.0000              : INCREMENT DEPTH
 NULL     .         -999.2500           : NULL VALUE
 COMP     .                              :
 WELL     .         F02-01              : WELL NAME
 EKB      .M        30.0000             : KELLY BUSHING ELEVATION
 EGL      .M        0.0000              : GROUND LEVEL ELEVATION
 EPD      .M        0.0000              : PERMANENT DATUM ELEVATION
 FLD      .                              :
 LOC      . X = 606554.0000 Y = 6080126.0000: WELL LOCATION
 PROV     .                              :
 SRVC     .                              :
 PROV     .                              :
 DATE     .                              :
 API      .                              :
#
~Curve Information Section
#MNEM     .UNIT               Curve #DESCRIPTION
#-----    -----               ----   --------------
 DEPTH    .M                  : 1     Name = Domain Curve - Type = DEPTH
 CALI     .in                 : 2     Name = Caliper_1 - Type = Caliper
 RHOB     .g/cc               : 3     Name = Density_1 - Type = Density
 GR       .API                : 4     Name = Gamma Ray_math - Type = Gamma Ray
 DT       .us/ft              : 5     Name = P-wave_1 - Type = P-wave
 DT       .us/ft              : 6     Name = P-wave_corr - Type = P-wave
 UNKNOWN  .fraction           : 7     Name = Porosity_1 - Type = Porosity
~A (ASCII LOG DATA)
# ...
 1009.9490         12.8245          2.2372         54.1915        127.3633        144.0843          0.2580
 1010.1010         12.8133          2.2597         54.5619        127.6838        144.4105          0.2439
 1010.2540         12.8018          2.2569         56.2619        128.4358        145.1524          0.2457
 1010.4060         12.7972          2.2557         56.2619        129.8277        146.5353          0.2464
 1010.5580         12.7885          2.2651         55.0960        130.2057        146.9204          0.2406
 1010.7110         12.7917          2.2666         55.0960        130.1340        146.8367          0.2396
 1010.8630         12.7947          2.2438         55.0960        129.8540        146.5538          0.2539
 1011.0160         12.8157          2.2235         54.5899        129.6963        146.4005          0.2666
 1011.1680         12.8531          2.2381         54.5899        129.9159        146.6100          0.2574
 1011.3200         12.8502          2.2588         53.6743        130.5113        147.1964          0.2445
 1011.4730         12.8436          2.2530         53.6743        130.1161        146.8151          0.2481
 1011.6250         12.8368          2.2599         53.6743        129.7823        146.4622          0.2438
 1011.7780         12.8294          2.2709         55.7922        128.8167        145.4973          0.2369
 1011.9300         12.8211          2.2727         56.8772        127.6260        144.3103          0.2358
 1012.0820         12.8256          2.2656         56.8772        127.8855        144.5564          0.2403
 1012.2350         12.8303          2.2707         56.8772        128.0278        144.7025          0.2371
 1012.3870         12.8357          2.2701         55.2843        128.2089        144.8849          0.2374
 1012.5400         12.8422          2.2437         54.7819        128.8901        145.5565          0.2539
 1012.6920         12.8498          2.2309         54.6834        130.1961        146.8591          0.2619
 1012.8440         12.8656          2.2338         54.6834        130.8685        147.5373          0.2601
 1012.9970         12.8077          2.2252         54.7819        131.6669        148.3268          0.2655
 1013.1490         12.8192          2.2159         57.8100        131.3495        148.0130          0.2713
 1013.3020         12.8288          2.2279         57.8100        130.8999        147.5563          0.2638
 1013.4540         12.8408          2.2516         57.8100        131.0027        147.6523          0.2490
 1013.6060         12.8500          2.2458         56.4857        132.5653        149.2258          0.2526
 1013.7590         12.8537          2.2297         56.4334        133.7611        150.4101          0.2627
 1013.9110         12.8519          2.2427         55.8425        134.3723        151.0211          0.2546
 1014.0640         12.8461          2.2300         54.5432        134.4364        151.0931          0.2625
 1014.2160         12.8369          2.2210         51.3520        133.5494        150.1914          0.2681
 1014.3680         12.8285          2.2305         51.3520        132.6779        149.3280          0.2622
 1014.5210         12.8192          2.2437         51.3520        132.3440        148.9876          0.2539
 1014.6730         12.8180          2.2524         51.4023        131.4333        148.0713          0.2485
 1014.8260         12.8162          2.2439         53.8923        129.5080        146.1511          0.2538
 1014.9780         12.8225          2.2798         55.8440        127.6537        144.3030          0.2314
 1015.1300         12.8221          2.2674         56.7006        125.8940        142.5290          0.2391
 1015.2830         12.8211          2.2737         56.7006        125.9106        142.5500          0.2352
 1015.4350         12.8274          2.2835         56.7006        126.1613        142.8052          0.2291
 1015.5880         12.8251          2.2770         56.5001        126.5866        143.2247          0.2331
 1015.7400         12.8218          2.2597         56.1401        127.3677        144.0098          0.2439
 1015.8920         12.8203          2.2451         54.7440        128.4391        145.0754          0.2531
 1016.0450         12.8294          2.2246         51.9251        129.1358        145.7714          0.2659
 1016.1970         12.8289          2.2309         51.9251        130.1286        146.7730          0.2619
 1016.3500         12.8277          2.2410         51.9251        130.1851        146.8201          0.2556
 1016.5020         12.8261          2.2399         53.0088        130.3126        146.9500          0.2563
 1016.6540         12.8249          2.2594         53.4553        131.0484        147.6911          0.2441
 1016.8070         12.8234          2.2522         54.1313        131.6847        148.3231          0.2486
 1016.9590         12.8270          2.2611         55.9838        132.3789        149.0237          0.2431
 1017.1120         12.8572          2.2410         56.2357        134.4406        151.0791          0.2556
 1017.2640         12.8811          2.2350         56.2734        135.1371        151.7722          0.2594
 1017.4160         12.8800          2.2246         57.5632        134.6794        151.3264          0.2659
 1017.5690         12.8504          2.2369         58.2360        133.5732        150.2118          0.2582
 1017.7210         12.9005          2.2479         58.2360        131.5946        148.2354          0.2513
 1017.8740         12.9179          2.2668         57.8713        131.7127        148.3572          0.2395
 1018.0260         12.9235          2.2488         57.5632        132.4921        149.1406          0.2507
 1018.1780         12.9316          2.2319         57.4417        133.4429        150.0953          0.2613
 1018.3310         12.9394          2.2246         56.8849        133.3270        149.9739          0.2659
 1018.4830         12.9331          2.2182         56.6215        132.0660        148.7119          0.2699
 1018.6360         12.9284          2.2279         56.8849        132.3013        148.9518          0.2638
 1018.7880         12.9664          2.2449         56.8849        132.5222        149.1845          0.2532
 1018.9400         13.0139          2.2202         56.0888        133.2573        149.9116          0.2686
 1019.0930         12.9761          2.2146         56.0674        134.2113        150.8727          0.2721
 1019.2450         13.0449          2.1925         56.0674        133.8942        150.5612          0.2859
 1019.3980         13.0381          2.2097         56.0674        133.9581        150.6257          0.2752
 1019.5500         13.0094          2.2019         59.9261        134.3350        151.0120          0.2801
 1019.7020         12.9670          2.2121         60.5237        134.1965        150.8681          0.2737
 1019.8550         12.9019          2.2076         60.5237        134.1443        150.8268          0.2765
 1020.0070         12.8773          2.2111         60.5237        133.8651        150.5556          0.2743
 1020.1600         12.8185          2.2316         61.6147        133.0799        149.7711          0.2615
 1020.3120         12.8034          2.2544         61.8126        133.5111        150.2034          0.2472
 1020.4640         12.8068          2.2529         61.6147        134.7856        151.4911          0.2482
 1020.6170         12.8647          2.2408         61.6147        134.1320        150.8387          0.2558
 1020.7690         12.9343          2.2438         60.3565        132.3087        149.0241          0.2539
 1020.9220         12.9267          2.2498         59.7701        128.5271        145.2485          0.2501
 1021.0740         12.9116          2.2355         59.4876        128.0140        144.7325          0.2591
 1021.2260         13.0497          2.2393         56.0212        129.6857        146.4288          0.2567
