~VERSION INFORMATION
 VERS.                          2.0   : CWLS LOG ASCII STANDARD - VERSION 2.0
 WRAP.                          NO    : ONE LINE PER DEPTH STEP
#
~Well Information Section
#MNEM     .UNIT     DATA                DESCRIPTION
#-----    -----     --------            --------------
 STRT     .M        30.0000             : START DEPTH
 STOP     .M        3150.0000           : END DEPTH
 STEP     .M        0.0000              : INCREMENT DEPTH
 NULL     .         -999.2500           : NULL VALUE
 COMP     .                              :
 WELL     .         F02-01              : WELL NAME
 EKB      .M        30.0000             : KELLY BUSHING ELEVATION
 EGL      .M        0.0000              : GROUND LEVEL ELEVATION
 EPD      .M        0.0000              : PERMANENT DATUM ELEVATION
 FLD      .                              :
 LOC      . X = 606554.0000 Y = 6080126.0000: WELL LOCATION
 PROV     .                              :
 SRVC     .                              :
 PROV     .                              :
 DATE     .                              :
 API      .                              :
#
~Curve Information Section
#MNEM     .UNIT               Curve #DESCRIPTION
#-----    -----               ----   --------------
 DEPTH    .M                  : 1     Name = Domain Curve - Type = DEPTH
 CALI     .in                 : 2     Name = Caliper_1 - Type = Caliper
 RHOB     .g/cc               : 3     Name = Density_1 - Type = Density
 GR       .API                : 4     Name = Gamma Ray_math - Type = Gamma Ray
 DT       .us/ft              : 5     Name = P-wave_1 - Type = P-wave
 DT       .us/ft              : 6     Name = P-wave_corr - Type = P-wave
 UNKNOWN  .fraction           : 7     Name = Porosity_1 - Type = Porosity
~A (ASCII LOG DATA)
# ...
  630.7780         16.1000          2.0253         70.3908        162.9950        164.1458          0.3904
  630.9300         16.1000          2.0091         71.7542        165.0430        166.1968          0.4006
  631.0820         16.1000          1.9544         76.0083        173.2468        174.4137          0.4348
  631.2350         16.1000          1.9709         76.0083        175.7913        176.9578          0.4244
  631.3870         16.1000          2.0001         76.0083        173.4218        174.6050          0.4062
  631.5400         16.1000          2.0656         74.0270        166.1849        167.3670          0.3653
  631.6920         16.1000          2.1380         73.7752        160.2827        161.4783          0.3200
  631.8440         16.1000          2.1354         72.7603        157.0052        158.2037          0.3216
  631.9970         16.1000          2.1298         72.7603        155.6834        156.8919          0.3251
  632.1490         16.1000          2.1039         71.3656        160.8130        162.0297          0.3413
  632.3020         16.1000          2.0697         68.7120        164.0243        165.2472          0.3627
  632.4540         16.1000          2.0292         67.9630        163.6663        164.9011          0.3880
  632.6060         16.1000          1.9954         67.7694        161.8091        163.0447          0.4091
  632.7590         16.1000          1.9484         67.0359        160.2538        161.5060          0.4385
  632.9110         16.1000          1.9664         67.7694        158.2575        159.5102          0.4272
  633.0640         16.1000          1.9658         67.9630        157.3326        158.6014          0.4276
  633.2160         16.1000          1.9604         70.4484        156.5774        157.8485          0.4310
  633.3680         16.1000          1.9654         72.0671        154.1526        155.4371          0.4279
  633.5210         16.1000          1.9790         72.6070        154.7183        156.0099          0.4194
  633.6730         16.1000          1.9967         72.6070        158.3556        159.6556          0.4083
  633.8260         16.1000          2.0047         72.6070        164.7369        166.0499          0.4033
  633.9780         16.1000          2.0814         72.4457        169.2072        170.5237          0.3554
  634.1300         16.1000          2.0759         72.4457        172.5200        173.8525          0.3588
  634.2830         16.1000          2.0654         72.4457        173.0311        174.3647          0.3654
  634.4350         16.1000          2.0525         74.4199        174.4883        175.8421          0.3734
  634.5880         16.1000          2.0734         74.4199        173.1825        174.5385          0.3604
  634.7400         16.1000          2.0294         74.4199        172.7691        174.1412          0.3879
  634.8920         16.1000          2.0394         72.6294        170.2053        171.5837          0.3816
  635.0450         16.1000          2.0604         72.6294        164.5055        165.8948          0.3685
  635.1970         16.1000          2.0562         72.6294        163.5725        164.9728          0.3711
  635.3500         16.1000          2.0555         77.7563        165.0483        166.4554          0.3716
  635.5020         16.1000          2.0457         81.3004        166.4101        167.8361          0.3777
  635.6540         16.1000          2.0575         83.1870        168.5191        169.9443          0.3703
  635.8070         16.1000          2.0571         83.1870        168.2777        169.7288          0.3706
  635.9590         16.1000          2.0458         83.1870        163.5864        165.0369          0.3776
  636.1120         16.1000          2.0268         81.3353        161.9074        163.3783          0.3895
  636.2640         16.1000          2.0115         80.8060        163.7990        165.2739          0.3991
  636.4160         16.1000          1.9751         80.8060        163.3401        164.8324          0.4218
  636.5690         16.1000          1.9763         80.8060        162.3758        163.8785          0.4211
  636.7210         16.1000          1.9895         81.9099        161.6212        163.1324          0.4128
  636.8740         16.1000          1.9736         83.4622        160.5558        162.0858          0.4227
  637.0260         16.1000          1.9938         83.8870        159.1566        160.6896          0.4101
  637.1780         16.1000          2.0040         84.4129        160.3351        161.8910          0.4038
  637.3310         16.1000          1.9965         84.4129        160.7524        162.3092          0.4084
  637.4830         16.1000          1.9713         84.4129        162.4432        164.0269          0.4242
  637.6360         16.1000          1.9109         83.7302        165.1660        166.7520          0.4619
  637.7880         16.1000          1.9144         83.7241        165.9326        167.5385          0.4597
  637.9400         16.1000          1.9451         83.7241        168.8881        170.5042          0.4406
  638.0930         16.1000          1.9698         83.7302        167.6994        169.3279          0.4251
  638.2450         16.1000          1.9647         86.0650        162.5349        164.1810          0.4283
  638.3980         16.1000          1.9843         89.0963        159.5903        161.2426          0.4161
  638.5500         16.1000          2.0232         92.7071        157.5241        159.2013          0.3917
  638.7020         16.1000          2.0441         92.7071        155.2941        156.9712          0.3787
  638.8550         16.1000          2.0553         92.7071        157.3963        159.1039          0.3717
  639.0070         16.1000          2.0659         92.3235        163.0921        164.8016          0.3651
  639.1600         16.1000          2.0750         92.1836        166.8010        168.5346          0.3594
  639.3120         16.1000          2.0678         91.8991        169.3459        171.0883          0.3639
  639.4640         16.1000          2.0620         86.0583        170.9361        172.6964          0.3675
  639.6170         16.1000          2.0436         84.7141        168.6284        170.4044          0.3790
  639.7690         16.1000          2.0275         84.7141        167.6401        169.4265          0.3891
  639.9220         16.1000          1.9838         84.7141        166.3580        168.1686          0.4164
  640.0740         16.1000          1.9714         86.6230        163.9490        165.7612          0.4241
  640.2260         16.1000          1.9900         90.1043        163.2405        165.0874          0.4125
  640.3790         16.1000          2.0194         95.2167        163.4715        165.3177          0.3941
  640.5310         16.1000          2.0547         96.0981        164.5569        166.4333          0.3721
  640.6840         16.1000          2.0920         98.5978        167.2334        169.1161          0.3487
  640.8360         16.1000          2.0978         98.5978        170.7241        172.6306          0.3451
  640.9880         16.1000          2.0912         98.5978        172.5152        174.4347          0.3492
  641.1410         16.1000          2.0857         96.5005        170.8597        172.7937          0.3527
  641.2930         16.1000          2.0661         96.0825        169.1424        171.1018          0.3649
  641.4460         16.1000          2.0361         95.1007        166.8498        168.8134          0.3837
  641.5980         16.1000          2.0414         95.1007        166.6151        168.6135          0.3804
  641.7500         16.1000          2.0370         94.8129        167.9090        169.9068          0.3831
  641.9030         16.1000          2.0529         94.4393        167.8691        169.9029          0.3732
  642.0550         16.1000          2.0657         89.4788        164.9745        167.0137          0.3652
