~VERSION INFORMATION
 VERS.                          2.0   : CWLS LOG ASCII STANDARD - VERSION 2.0
 WRAP.                          NO    : ONE LINE PER DEPTH STEP
#
~Well Information Section
#MNEM     .UNIT     DATA                DESCRIPTION
#-----    -----     --------            --------------
 STRT     .M        30.0000             : START DEPTH
 STOP     .M        3150.0000           : END DEPTH
 STEP     .M        0.0000              : INCREMENT DEPTH
 NULL     .         -999.2500           : NULL VALUE
 COMP     .                              :
 WELL     .         F02-01              : WELL NAME
 EKB      .M        30.0000             : KELLY BUSHING ELEVATION
 EGL      .M        0.0000              : GROUND LEVEL ELEVATION
 EPD      .M        0.0000              : PERMANENT DATUM ELEVATION
 FLD      .                              :
 LOC      . X = 606554.0000 Y = 6080126.0000: WELL LOCATION
 PROV     .                              :
 SRVC     .                              :
 PROV     .                              :
 DATE     .                              :
 API      .                              :
#
~Curve Information Section
#MNEM     .UNIT               Curve #DESCRIPTION
#-----    -----               ----   --------------
 DEPTH    .M                  : 1     Name = Domain Curve - Type = DEPTH
 CALI     .in                 : 2     Name = Caliper_1 - Type = Caliper
 RHOB     .g/cc               : 3     Name = Density_1 - Type = Density
 GR       .API                : 4     Name = Gamma Ray_math - Type = Gamma Ray
 DT       .us/ft              : 5     Name = P-wave_1 - Type = P-wave
 DT       .us/ft              : 6     Name = P-wave_corr - Type = P-wave
 UNKNOWN  .fraction           : 7     Name = Porosity_1 - Type = Porosity
~A (ASCII LOG DATA)
# ...
 1398.5690         12.9782          2.1816         71.9752        140.7404        137.3261       -999.2500
 1398.7209         12.9833          2.1771         71.2767        139.9902        136.5864       -999.2500
 1398.8740         12.9960          2.1560         69.9919        139.0287        135.6336       -999.2500
 1399.0260         13.0094          2.1316         69.5275        138.2038        134.8123       -999.2500
 1399.1780         13.0418          2.1470         69.5275        136.9914        133.6163       -999.2500
 1399.3311         13.0175          2.1600         69.5275        137.6638        134.2873       -999.2500
 1399.4830         12.9737          2.1556         70.8087        138.1254        134.7665       -999.2500
 1399.6360         12.9460          2.1562         70.8087        138.3488        134.9917       -999.2500
 1399.7880         13.0073          2.1651         71.0692        138.2233        134.8792       -999.2500
 1399.9399         13.0190          2.1730         71.0692        137.4203        134.0824       -999.2500
 1400.0930         12.9823          2.1578         71.4991        136.1035        132.7739       -999.2500
 1400.2450         12.8860          2.1356         71.0727        135.1726        131.8512       -999.2500
 1400.3979         12.9798          2.1730         71.0727        135.1820        131.8678       -999.2500
 1400.5500         12.9483          2.1904         71.0727        135.8797        132.5783       -999.2500
 1400.7020         12.9036          2.1899         67.6151        137.3636        134.0621       -999.2500
 1400.8550         12.9767          2.1863         64.6083        138.9924        135.7100       -999.2500
 1401.0070         12.9371          2.1867         64.6083        140.9009        137.6172       -999.2500
 1401.1600         12.8286          2.1656         64.6083        142.5323        139.2662       -999.2500
 1401.3120         13.1206          2.1723         64.6083        144.0427        140.7775       -999.2500
 1401.4640         12.9858          2.1612         64.5330        145.2870        142.0329       -999.2500
 1401.6169         12.9523          2.1480         64.2488        145.9904        142.7455       -999.2500
 1401.7690         13.0261          2.1444         61.9590        146.5901        143.3513       -999.2500
 1401.9220         13.0175          2.1291         61.9590        147.2501        144.0236       -999.2500
 1402.0740         12.8787          2.1283         61.9590        148.2787        145.0536       -999.2500
 1402.2260         12.9762          2.1631         62.3729        148.1842        144.9768       -999.2500
 1402.3790         13.0581          2.1628         62.7141        148.0326        144.8242       -999.2500
 1402.5310         13.1572          2.1929         63.4088        147.9847        144.7925       -999.2500
 1402.6840         13.0424          2.1863         63.4088        148.0122        144.8232       -999.2500
 1402.8361         12.9640          2.1601         63.4088        148.0905        144.9135       -999.2500
 1402.9880         12.9706          2.1618         64.6601        148.0657        144.8941       -999.2500
 1403.1410         12.9937          2.1543         64.6601        148.0061        144.8441       -999.2500
 1403.2930         13.0210          2.1600         64.6601        147.9355        144.7822       -999.2500
 1403.4460         12.9605          2.1435         64.3781        147.8653        144.7168       -999.2500
 1403.5980         12.9799          2.1336         63.3971        147.7526        144.6200       -999.2500
 1403.7500         13.0024          2.1389         61.6541        147.8542        144.7195       -999.2500
 1403.9030         12.9812          2.1431         61.0567        148.0276        144.9123       -999.2500
 1404.0551         13.0211          2.1669         61.0567        148.3195        145.2042       -999.2500
 1404.2080         13.0045          2.1781         61.0567        148.8381        145.7354       -999.2500
 1404.3600         12.9753          2.1769         60.2133        149.4821        146.3859       -999.2500
 1404.5120         12.9665          2.1682         61.3963        149.8642        146.7759       -999.2500
 1404.6650         12.9920          2.1491         61.3963        150.3181        147.2387       -999.2500
 1404.8170         12.9801          2.1185         60.2133        150.2479        147.1754       -999.2500
 1404.9700         12.8946          2.1006         60.2133        149.9996        146.9374       -999.2500
 1405.1219         12.8671          2.1081         61.3963        149.7469        146.6881       -999.2500
 1405.2740         12.8664          2.1317         62.0072        149.5158        146.4729       -999.2500
 1405.4270         12.8920          2.1617         67.2189        149.2293        146.1852       -999.2500
 1405.5790         12.8837          2.1311         67.9638        148.8321        145.8051       -999.2500
 1405.7321         12.9664          2.1201         68.7465        148.4328        145.4070       -999.2500
 1405.8840         12.9656          2.1316         69.1598        148.2125        145.1971       -999.2500
 1406.0360         13.1890          2.1583         70.9084        148.1725        145.1658       -999.2500
 1406.1890         13.1288          2.1567         70.9084        148.1198        145.1192       -999.2500
 1406.3409         13.0005          2.1655         70.9084        148.0800        145.0889       -999.2500
 1406.4940         12.8734          2.1566         70.3683        148.3088        145.3208       -999.2500
 1406.6460         12.8789          2.1416         70.3582        148.5901        145.6180       -999.2500
 1406.7980         12.8955          2.1367         70.3582        148.8196        145.8458       -999.2500
 1406.9510         13.1079          2.1169         70.3683        149.0502        146.0924       -999.2500
 1407.1030         13.0768          2.1090         72.5609        149.2651        146.3098       -999.2500
 1407.2560         12.9363          2.1331         72.5609        149.6714        146.7258       -999.2500
 1407.4080         12.9430          2.1240         72.5609        150.0790        147.1404       -999.2500
 1407.5601         12.8672          2.1362         66.9667        150.5613        147.6298       -999.2500
 1407.7130         12.8660          2.1327         66.4312        150.8075        147.8834       -999.2500
 1407.8650         12.8692          2.1280         65.3101        150.9375        148.0193       -999.2500
 1408.0179         12.8723          2.1558         64.8517        151.0884        148.1811       -999.2500
 1408.1700         12.8785          2.1483         64.1093        151.3250        148.4185       -999.2500
 1408.3220         12.8715          2.1282         63.0735        151.6754        148.7857       -999.2500
 1408.4750         12.8616          2.1430         61.8036        152.1534        149.2621       -999.2500
 1408.6270         12.9150          2.1430         61.4878        151.6136        148.7359       -999.2500
 1408.7800         12.9470          2.1438         60.6165        151.0636        148.1884       -999.2500
 1408.9320         12.9337          2.1338         60.1275        150.7550        147.8880       -999.2500
 1409.0840         12.9706          2.1513         60.1275        150.8427        147.9841       -999.2500
 1409.2371         12.9705          2.1485         60.1275        151.2331        148.3782       -999.2500
 1409.3890         12.9541          2.1421         63.1602        151.7586        148.9136       -999.2500
 1409.5420         12.9492          2.1530         63.1832        151.7819        148.9392       -999.2500
 1409.6940         12.9585          2.1468         63.4682        151.8115        148.9813       -999.2500
 1409.8459         12.9944          2.1261         64.6967        151.8386        149.0101       -999.2500
