~VERSION INFORMATION
 VERS.                          2.0   : CWLS LOG ASCII STANDARD - VERSION 2.0
 WRAP.                          NO    : ONE LINE PER DEPTH STEP
#
~Well Information Section
#MNEM     .UNIT     DATA                DESCRIPTION
#-----    -----     --------            --------------
 STRT     .M        30.0000             : START DEPTH
 STOP     .M        3150.0000           : END DEPTH
 STEP     .M        0.0000              : INCREMENT DEPTH
 NULL     .         -999.2500           : NULL VALUE
 COMP     .                              :
 WELL     .         F02-01              : WELL NAME
 EKB      .M        30.0000             : KELLY BUSHING ELEVATION
 EGL      .M        0.0000              : GROUND LEVEL ELEVATION
 EPD      .M        0.0000              : PERMANENT DATUM ELEVATION
 FLD      .                              :
 LOC      . X = 606554.0000 Y = 6080126.0000: WELL LOCATION
 PROV     .                              :
 SRVC     .                              :
 PROV     .                              :
 DATE     .                              :
 API      .                              :
#
~Curve Information Section
#MNEM     .UNIT               Curve #DESCRIPTION
#-----    -----               ----   --------------
 DEPTH    .M                  : 1     Name = Domain Curve - Type = DEPTH
 CALI     .in                 : 2     Name = Caliper_1 - Type = Caliper
 RHOB     .g/cc               : 3     Name = Density_1 - Type = Density
 GR       .API                : 4     Name = Gamma Ray_math - Type = Gamma Ray
 DT       .us/ft              : 5     Name = P-wave_1 - Type = P-wave
 DT       .us/ft              : 6     Name = P-wave_corr - Type = P-wave
 UNKNOWN  .fraction           : 7     Name = Porosity_1 - Type = Porosity
~A (ASCII LOG DATA)
# ...
 1101.3890         12.9660          2.2468         41.5563        119.9106        127.7860          0.2520
 1101.5410         12.9658          2.2531         41.5563        119.4788        127.3525          0.2481
 1101.6940         12.9869          2.2665         41.5563        119.8010        127.6787          0.2397
 1101.8459         12.9877          2.2784         43.8335        119.6488        127.5217          0.2323
 1101.9980         12.9889          2.2549         47.1176        119.9498        127.8226          0.2469
 1102.1510         12.9261          2.2380         49.6239        120.3032        128.1805          0.2575
 1102.3030         12.8658          2.2264         50.8843        120.9475        128.8187          0.2648
 1102.4561         12.8730          2.2383         51.1345        120.5153        128.3886          0.2573
 1102.6080         12.8837          2.2418         52.8624        120.5175        128.3923          0.2551
 1102.7600         12.8818          2.2580         52.8624        120.7169        128.5868          0.2450
 1102.9130         12.8785          2.2633         52.8624        120.9381        128.8112          0.2417
 1103.0649         12.9121          2.2809         50.1766        121.7787        129.6491          0.2307
 1103.2180         12.8325          2.2826         50.1766        123.0698        130.9430          0.2296
 1103.3700         12.8137          2.2734         50.1766        122.9721        130.8449          0.2354
 1103.5220         12.8240          2.2628         51.4808        122.4974        130.3676          0.2420
 1103.6750         12.8346          2.2708         51.9508        121.0080        128.8795          0.2370
 1103.8270         12.8457          2.2599         53.9070        119.9693        127.8439          0.2438
 1103.9800         12.8596          2.2521         54.1891        119.4976        127.3677          0.2487
 1104.1320         12.8467          2.2618         54.1891        119.6819        127.5499          0.2426
 1104.2841         12.8139          2.2313         54.2025        122.5167        130.3917          0.2617
 1104.4370         12.7219          2.2514         55.5881        124.1030        131.9731          0.2491
 1104.5890         12.6570          2.2457         55.5881        127.1193        134.9900          0.2527
 1104.7419         12.7066          2.2512         53.8419        127.0432        134.9176          0.2493
 1104.8940         12.7934          2.2357         51.2010        125.0666        132.9394          0.2589
 1105.0460         12.7967          2.2301         47.3105        122.0440        129.9117          0.2624
 1105.1990         12.8589          2.2054         46.4003        118.6554        126.5304          0.2779
 1105.3510         12.8997          2.1773         44.8708        120.0860        127.9556          0.2954
 1105.5040         12.9592          2.1330         44.8346        122.5466        130.4226          0.3231
 1105.6560         13.0990          2.1348         44.6215        125.2479        133.1224          0.3220
 1105.8080         13.0737          2.1601         44.6215        128.4211        136.2935          0.3062
 1105.9611         13.0375          2.1729         44.6215        130.0311        137.9062          0.2982
 1106.1130         13.5043          2.1614         47.4964        129.2784        137.1551          0.3054
 1106.2660         13.6136          2.1444         47.4964        129.3418        137.2155          0.3160
 1106.4180         13.2238          2.1456         47.4964        132.2947        140.1724          0.3152
 1106.5699         13.2101          2.1475         45.6976        130.1246        137.9977          0.3141
 1106.7230         13.2327          2.1366         45.2480        130.1883        138.0672          0.3209
 1106.8750         13.0644          2.1229         44.0244        130.8624        138.7400          0.3294
 1107.0280         13.0868          2.1079         41.6091        131.3815        139.2577          0.3388
 1107.1801         13.1685          2.1274         39.0596        131.9223        139.8029          0.3266
 1107.3320         12.9886          2.1266         38.5692        134.9393        142.8206          0.3271
 1107.4850         12.7888          2.1349         37.5421        134.9022        142.7808          0.3219
 1107.6370         12.7402          2.1291         36.1954        134.6478        142.5296          0.3256
 1107.7900         12.7429          2.1203         36.0927        134.2025        142.0856          0.3311
 1107.9420         12.8041          2.1418         35.2152        131.9433        139.8237          0.3176
 1108.0940         12.7747          2.1361         35.2152        132.2418        140.1288          0.3212
 1108.2469         12.8171          2.1380         35.2152        133.0320        140.9145          0.3200
 1108.3990         12.7964          2.1489         33.3491        134.1225        142.0061          0.3132
 1108.5520         12.7792          2.1393         32.4667        135.4590        143.3475          0.3192
 1108.7040         12.7968          2.1073         32.4667        135.3530        143.2374          0.3392
 1108.8560         12.7966          2.1150         32.4667        135.1931        143.0818          0.3344
 1109.0090         12.7792          2.1367         32.9962        135.1348        143.0253          0.3208
 1109.1610         12.7649          2.1335         32.9978        135.1202        143.0075          0.3228
 1109.3140         12.7563          2.1291         33.0760        135.1021        142.9924          0.3256
 1109.4659         12.7507          2.1308         33.0987        134.9501        142.8465          0.3245
 1109.6180         12.7449          2.1428         33.4575        134.8287        142.7209          0.3170
 1109.7710         12.7394          2.1327         34.7989        134.3182        142.2106          0.3233
 1109.9230         12.7292          2.1260         35.8588        133.5794        141.4758          0.3275
 1110.0760         12.7307          2.1126         36.2046        132.4853        140.3816          0.3359
 1110.2280         12.7345          2.1245         36.2046        130.7882        138.6824          0.3284
 1110.3800         12.7264          2.1448         36.2046        128.8499        136.7483          0.3158
 1110.5330         12.7201          2.1386         36.2046        128.7920        136.6920          0.3196
 1110.6851         12.7275          2.1282         36.5645        129.0916        136.9914          0.3261
 1110.8380         12.7472          2.1368         38.9291        130.9212        138.8247          0.3207
 1110.9900         12.7669          2.1624         39.9876        132.1112        140.0129          0.3047
 1111.1420         12.7856          2.1730         39.9876        131.9575        139.8628          0.2981
 1111.2950         12.7812          2.1551         39.9876        131.1266        139.0324          0.3093
 1111.4470         12.7628          2.1162         37.8406        131.7873        139.6907          0.3336
 1111.6000         12.7639          2.0948         37.8406        133.0220        140.9328          0.3470
 1111.7520         12.7685          2.0956         37.8406        135.0459        142.9509          0.3465
 1111.9041         12.7548          2.1135         38.6593        137.3277        145.2367          0.3353
 1112.0570         12.7377          2.1309         39.4629        137.3067        145.2210          0.3244
 1112.2090         12.7132          2.1456         39.4629        136.4766        144.3852          0.3152
 1112.3621         12.7190          2.1235         39.4629        135.6675        143.5811          0.3291
 1112.5140         12.7248          2.1109         38.1074        133.2151        141.1311          0.3369
 1112.6660         12.7384          2.1136         37.1898        132.4303        140.3453          0.3352
