~VERSION INFORMATION
 VERS.                          2.0   : CWLS LOG ASCII STANDARD - VERSION 2.0
 WRAP.                          NO    : ONE LINE PER DEPTH STEP
#
~Well Information Section
#MNEM     .UNIT     DATA                DESCRIPTION
#-----    -----     --------            --------------
 STRT     .M        30.0000             : START DEPTH
 STOP     .M        3150.0000           : END DEPTH
 STEP     .M        0.0000              : INCREMENT DEPTH
 NULL     .         -999.2500           : NULL VALUE
 COMP     .                              :
 WELL     .         F02-01              : WELL NAME
 EKB      .M        30.0000             : KELLY BUSHING ELEVATION
 EGL      .M        0.0000              : GROUND LEVEL ELEVATION
 EPD      .M        0.0000              : PERMANENT DATUM ELEVATION
 FLD      .                              :
 LOC      . X = 606554.0000 Y = 6080126.0000: WELL LOCATION
 PROV     .                              :
 SRVC     .                              :
 PROV     .                              :
 DATE     .                              :
 API      .                              :
#
~Curve Information Section
#MNEM     .UNIT               Curve #DESCRIPTION
#-----    -----               ----   --------------
 DEPTH    .M                  : 1     Name = Domain Curve - Type = DEPTH
 CALI     .in                 : 2     Name = Caliper_1 - Type = Caliper
 RHOB     .g/cc               : 3     Name = Density_1 - Type = Density
 GR       .API                : 4     Name = Gamma Ray_math - Type = Gamma Ray
 DT       .us/ft              : 5     Name = P-wave_1 - Type = P-wave
 DT       .us/ft              : 6     Name = P-wave_corr - Type = P-wave
 UNKNOWN  .fraction           : 7     Name = Porosity_1 - Type = Porosity
~A (ASCII LOG DATA)
# ...
  253.5880       -999.2500       -999.2500         20.4782        156.6462        152.6043       -999.2500
  253.7400       -999.2500       -999.2500         19.1869        156.6439        152.6004       -999.2500
  253.8920       -999.2500       -999.2500         19.1869        156.6416        152.5982       -999.2500
  254.0450       -999.2500       -999.2500         19.1869        156.6393        152.5950       -999.2500
  254.1970       -999.2500       -999.2500         20.8478        156.6370        152.5915       -999.2500
  254.3500       -999.2500       -999.2500         20.8478        156.6348        152.5883       -999.2500
  254.5020       -999.2500       -999.2500         20.8478        156.6325        152.5858       -999.2500
  254.6540       -999.2500       -999.2500         20.4639        156.6302        152.5829       -999.2500
  254.8070       -999.2500       -999.2500         20.3991        156.6279        152.5797       -999.2500
  254.9590       -999.2500       -999.2500         20.2448        156.6256        152.5771       -999.2500
  255.1120       -999.2500       -999.2500         19.9478        156.6233        152.5728       -999.2500
  255.2640       -999.2500       -999.2500         19.5207        156.6210        152.5705       -999.2500
  255.4160       -999.2500       -999.2500         18.2818        156.6188        152.5677       -999.2500
  255.5690       -999.2500       -999.2500         17.5913        156.6165        152.5644       -999.2500
  255.7210       -999.2500       -999.2500         17.5913        156.6142        152.5612       -999.2500
  255.8740       -999.2500       -999.2500         18.2818        156.6119        152.5587       -999.2500
  256.0260       -999.2500       -999.2500         19.4653        156.6096        152.5554       -999.2500
  256.1780       -999.2500       -999.2500         19.7766        156.6073        152.5519       -999.2500
  256.3310       -999.2500       -999.2500         20.6643        156.6050        152.5501       -999.2500
  256.4830       -999.2500       -999.2500         20.6643        156.6028        152.5462       -999.2500
  256.6360       -999.2500       -999.2500         20.4071        156.6005        152.5429       -999.2500
  256.7880       -999.2500       -999.2500         20.4071        156.5982        152.5403       -999.2500
  256.9400       -999.2500       -999.2500         17.6472        156.5959        152.5372       -999.2500
  257.0930       -999.2500       -999.2500         17.4311        156.5936        152.5348       -999.2500
  257.2450       -999.2500       -999.2500         16.6096        156.5913        152.5308       -999.2500
  257.3980       -999.2500       -999.2500         16.6096        156.5890        152.5283       -999.2500
  257.5500       -999.2500       -999.2500         16.5939        156.5867        152.5254       -999.2500
  257.7020       -999.2500       -999.2500         16.5939        156.5845        152.5226       -999.2500
  257.8550       -999.2500       -999.2500         17.3333        156.5822        152.5186       -999.2500
  258.0070       -999.2500       -999.2500         20.7827        156.5799        152.5166       -999.2500
  258.1600       -999.2500       -999.2500         20.8417        156.5776        152.5134       -999.2500
  258.3120       -999.2500       -999.2500         21.2479        156.5753        152.5103       -999.2500
  258.4640       -999.2500       -999.2500         21.2479        156.5730        152.5071       -999.2500
  258.6170       -999.2500       -999.2500         20.8417        156.5707        152.5039       -999.2500
  258.7690       -999.2500       -999.2500         19.7824        156.5685        152.5012       -999.2500
  258.9220       -999.2500       -999.2500         19.2309        156.5662        152.4982       -999.2500
  259.0740       -999.2500       -999.2500         17.9812        156.5639        152.4967       -999.2500
  259.2260       -999.2500       -999.2500         17.9812        156.5616        152.4915       -999.2500
  259.3790       -999.2500       -999.2500         17.5976        156.5593        152.4899       -999.2500
  259.5310       -999.2500       -999.2500         17.9812        156.5570        152.4860       -999.2500
  259.6840       -999.2500       -999.2500         18.1692        156.5547        152.4834       -999.2500
  259.8360       -999.2500       -999.2500         18.1692        156.5525        152.4799       -999.2500
  259.9880       -999.2500       -999.2500         18.6384        156.5502        152.4779       -999.2500
  260.1410       -999.2500       -999.2500         18.6777        156.5479        152.4743       -999.2500
  260.2930       -999.2500       -999.2500         18.6384        156.5456        152.4713       -999.2500
  260.4460       -999.2500       -999.2500         18.5820        156.5433        152.4685       -999.2500
  260.5980       -999.2500       -999.2500         18.5820        156.5410        152.4652       -999.2500
  260.7500       -999.2500       -999.2500         17.2583        156.5388        152.4621       -999.2500
  260.9030       -999.2500       -999.2500         17.2583        156.5365        152.4597       -999.2500
  261.0550       -999.2500       -999.2500         17.2583        156.5342        152.4568       -999.2500
  261.2080       -999.2500       -999.2500         17.2583        156.5319        152.4529       -999.2500
  261.3600       -999.2500       -999.2500         17.2583        156.5296        152.4509       -999.2500
  261.5120       -999.2500       -999.2500         19.0455        156.5273        152.4477       -999.2500
  261.6650       -999.2500       -999.2500         19.3265        156.5250        152.4443       -999.2500
  261.8170       -999.2500       -999.2500         19.3265        156.5228        152.4418       -999.2500
  261.9700         15.8670          2.0020         20.6418        156.5204        152.4388       -999.2500
  262.1220         15.8689          1.9962         20.9495        156.5182        152.4361       -999.2500
  262.2740         15.8740          1.9827         21.3494        156.5159        152.4330       -999.2500
  262.4270         16.0522          1.9884         21.3494        156.5136        152.4299       -999.2500
  262.5790         16.0501          2.0291         20.9776        156.5113        152.4272       -999.2500
  262.7320         16.0462          2.0227         21.3494        156.5090        152.4239       -999.2500
  262.8840         16.0493          1.9639         21.3494        156.5067        152.4210       -999.2500
  263.0360         16.0451          1.9651         22.9395        156.5045        152.4177       -999.2500
  263.1890         16.0423          1.9856         23.1452        156.5022        152.4153       -999.2500
  263.3410         16.0397          2.0141         23.1452        156.4999        152.4118       -999.2500
  263.4940         16.0378          2.0143         23.1452        156.4976        152.4099       -999.2500
  263.6460         16.0357          2.0043         19.9561        156.4953        152.4060       -999.2500
  263.7980         16.0409          1.9902         19.7889        156.4930        152.4035       -999.2500
  263.9510         16.0470          2.0039         18.6557        156.4907        152.4001       -999.2500
  264.1030         16.0574          1.9951         18.0223        156.4884        152.3970       -999.2500
  264.2560         16.0545          1.9871         18.0223        156.4862        152.3949       -999.2500
  264.4080         16.0434          1.9927         18.0223        156.4839        152.3911       -999.2500
  264.5600         16.0431          2.0055         20.1290        156.4816        152.3890       -999.2500
  264.7130         16.0427          1.9933         20.1290        156.4793        152.3854       -999.2500
  264.8650         16.0424          1.9956         20.1290        156.4770        152.3829       -999.2500
