~VERSION INFORMATION
 VERS.                          2.0   : CWLS LOG ASCII STANDARD - VERSION 2.0
 WRAP.                          NO    : ONE LINE PER DEPTH STEP
#
~Well Information Section
#MNEM     .UNIT     DATA                DESCRIPTION
#-----    -----     --------            --------------
 STRT     .M        30.0000             : START DEPTH
 STOP     .M        3150.0000           : END DEPTH
 STEP     .M        0.0000              : INCREMENT DEPTH
 NULL     .         -999.2500           : NULL VALUE
 COMP     .                              :
 WELL     .         F02-01              : WELL NAME
 EKB      .M        30.0000             : KELLY BUSHING ELEVATION
 EGL      .M        0.0000              : GROUND LEVEL ELEVATION
 EPD      .M        0.0000              : PERMANENT DATUM ELEVATION
 FLD      .                              :
 LOC      . X = 606554.0000 Y = 6080126.0000: WELL LOCATION
 PROV     .                              :
 SRVC     .                              :
 PROV     .                              :
 DATE     .                              :
 API      .                              :
#
~Curve Information Section
#MNEM     .UNIT               Curve #DESCRIPTION
#-----    -----               ----   --------------
 DEPTH    .M                  : 1     Name = Domain Curve - Type = DEPTH
 CALI     .in                 : 2     Name = Caliper_1 - Type = Caliper
 RHOB     .g/cc               : 3     Name = Density_1 - Type = Density
 GR       .API                : 4     Name = Gamma Ray_math - Type = Gamma Ray
 DT       .us/ft              : 5     Name = P-wave_1 - Type = P-wave
 DT       .us/ft              : 6     Name = P-wave_corr - Type = P-wave
 UNKNOWN  .fraction           : 7     Name = Porosity_1 - Type = Porosity
~A (ASCII LOG DATA)
# ...
 1295.6990         13.7982          1.7746         41.0737        154.1758        146.1922       -999.2500
 1295.8510         12.9374          1.7700         40.5676        154.9416        146.9374       -999.2500
 1296.0040         12.8088          1.7604         40.5676        156.8202        148.8175       -999.2500
 1296.1560         12.8726          1.7450         40.5676        159.8159        151.7972       -999.2500
 1296.3080         12.8458          1.7390         40.7348        159.4615        151.4375       -999.2500
 1296.4611         12.8232          1.7280         41.3832        158.9854        150.9478       -999.2500
 1296.6130         12.8401          1.7181         41.3832        157.1937        149.1543       -999.2500
 1296.7660         13.0379          1.7086         40.8363        155.6711        147.6168       -999.2500
 1296.9180         12.8266          1.7163         40.7348        154.2192        146.1594       -999.2500
 1297.0699         12.9778          1.7401         40.3410        153.9768        145.9082       -999.2500
 1297.2230         12.8730          1.7774         40.3410        154.7130        146.6304       -999.2500
 1297.3750         12.7975          1.7984         40.8363        154.5067        146.4271       -999.2500
 1297.5280         12.9407          1.8043         41.9303        154.6552        146.5549       -999.2500
 1297.6801         12.8294          1.8025         41.9303        154.4195        146.3142       -999.2500
 1297.8320         12.9274          1.7946         42.1319        153.6249        145.5103       -999.2500
 1297.9850         12.8365          1.7835         42.3623        153.3365        145.2168       -999.2500
 1298.1370         12.9626          1.7739         41.9303        154.7050        146.5712       -999.2500
 1298.2900         13.1559          1.7614         40.9897        153.7868        145.6448       -999.2500
 1298.4420         12.8666          1.7506         41.0724        154.1501        146.0062       -999.2500
 1298.5940         12.8146          1.7518         41.0724        155.2585        147.0967       -999.2500
 1298.7469         13.0077          1.7530         41.0724        154.5114        146.3507       -999.2500
 1298.8990         12.7904          1.7498         41.0724        154.5186        146.3393       -999.2500
 1299.0520         12.9085          1.7672         42.3684        153.9653        145.7829       -999.2500
 1299.2040         12.8521          1.7902         42.7185        153.9930        145.8006       -999.2500
 1299.3560         12.7737          1.8015         42.7185        155.4435        147.2439       -999.2500
 1299.5090         12.7480          1.8061         44.1451        155.1136        146.9034       -999.2500
 1299.6610         12.7681          1.8005         45.8934        154.3705        146.1564       -999.2500
 1299.8140         12.7990          1.7961         45.8934        153.5912        145.3642       -999.2500
 1299.9659         12.8656          1.7931         45.8934        152.1507        143.9176       -999.2500
 1300.1180         12.8185          1.8057         45.2472        150.5396        142.3011       -999.2500
 1300.2710         12.7822          1.8200         43.9890        149.6846        141.4277       -999.2500
 1300.4230         12.8380          1.8289         43.8677        149.8457        141.5945       -999.2500
 1300.5760         12.8047          1.8354         43.8677        150.2443        141.9723       -999.2500
 1300.7280         12.9509          1.8515         43.9890        150.2917        142.0182       -999.2500
 1300.8800         12.8117          1.8669         46.2991        150.4622        142.1797       -999.2500
 1301.0330         12.9271          1.8705         49.4455        151.4050        143.1121       -999.2500
 1301.1851         12.7765          1.8581         57.3393        152.1992        143.9012       -999.2500
 1301.3380         12.8231          1.8670         57.9305        152.7893        144.4832       -999.2500
 1301.4900         12.9462          1.8720         57.9305        152.2660        143.9527       -999.2500
 1301.6420         12.7943          1.8442         57.3393        151.5591        143.2370       -999.2500
 1301.7950         13.1123          1.8226         53.9999        150.7254        142.3998       -999.2500
 1301.9470         12.8059          1.8011         52.7978        151.0046        142.6617       -999.2500
 1302.1000         12.8009          1.8142         52.7845        151.9565        143.6171       -999.2500
 1302.2520         12.7973          1.8277         52.3579        151.6101        143.2539       -999.2500
 1302.4041         12.7969          1.8334         51.2457        150.6698        142.3128       -999.2500
 1302.5570         12.7997          1.8463         49.7927        148.8366        140.4718       -999.2500
 1302.7090         12.7962          1.8430         47.8256        146.9685        138.5935       -999.2500
 1302.8621         12.8248          1.8288         47.4080        145.8143        137.4397       -999.2500
 1303.0140         12.9218          1.8325         47.4080        146.5151        138.1246       -999.2500
 1303.1660         12.8263          1.8486         47.4080        148.4104        140.0187       -999.2500
 1303.3190         12.8181          1.8584         48.6401        150.7325        142.3313       -999.2500
 1303.4709         12.8097          1.8646         48.7624        152.1794        143.7744       -999.2500
 1303.6240         12.7969          1.8574         50.4159        151.5626        143.1505       -999.2500
 1303.7760         12.7888          1.8380         51.6394        149.9936        141.5748       -999.2500
 1303.9280         12.7882          1.8419         53.2157        148.8322        140.4045       -999.2500
 1304.0811         12.7941          1.8425         53.6803        148.2285        139.8019       -999.2500
 1304.2330         12.8030          1.8374         53.8992        147.6238        139.1863       -999.2500
 1304.3860         12.8230          1.8473         54.6795        148.1534        139.7113       -999.2500
 1304.5380         12.8261          1.8470         54.9734        148.3327        139.8855       -999.2500
 1304.6899         12.8424          1.8304         55.0074        148.6389        140.1822       -999.2500
 1304.8430         12.8499          1.8192         55.7555        149.1829        140.7312       -999.2500
 1304.9950         12.8495          1.8325         55.7555        149.8031        141.3352       -999.2500
 1305.1479         12.8367          1.8381         55.7555        149.4329        140.9685       -999.2500
 1305.3000         12.8410          1.8499         56.1959        148.7726        140.2990       -999.2500
 1305.4520         12.8858          1.8627         56.9064        148.8578        140.3795       -999.2500
 1305.6050         13.1805          1.8600         57.8004        150.2389        141.7594       -999.2500
 1305.7570         12.8633          1.8615         59.2169        151.7428        143.2545       -999.2500
 1305.9100         12.8032          1.8558         60.7603        153.8440        145.3550       -999.2500
 1306.0620         12.8247          1.8563         61.6370        154.5200        146.0277       -999.2500
 1306.2140         13.0913          1.8454         63.2956        153.7447        145.2475       -999.2500
 1306.3669         12.6992          1.8523         63.6133        153.0763        144.5749       -999.2500
 1306.5190         12.7348          1.8682         65.2605        152.8384        144.3360       -999.2500
 1306.6720         12.7646          1.8948         65.9408        152.5060        143.9943       -999.2500
 1306.8240         12.7806          1.9122         66.2460        151.8614        143.3537       -999.2500
 1306.9760         12.7960          1.9405         66.8237        150.8676        142.3510       -999.2500
