~VERSION INFORMATION
 VERS.                          2.0   : CWLS LOG ASCII STANDARD - VERSION 2.0
 WRAP.                          NO    : ONE LINE PER DEPTH STEP
#
~Well Information Section
#MNEM     .UNIT     DATA                DESCRIPTION
#-----    -----     --------            --------------
 STRT     .M        30.0000             : START DEPTH
 STOP     .M        3150.0000           : END DEPTH
 STEP     .M        0.0000              : INCREMENT DEPTH
 NULL     .         -999.2500           : NULL VALUE
 COMP     .                              :
 WELL     .         F02-01              : WELL NAME
 EKB      .M        30.0000             : KELLY BUSHING ELEVATION
 EGL      .M        0.0000              : GROUND LEVEL ELEVATION
 EPD      .M        0.0000              : PERMANENT DATUM ELEVATION
 FLD      .                              :
 LOC      . X = 606554.0000 Y = 6080126.0000: WELL LOCATION
 PROV     .                              :
 SRVC     .                              :
 PROV     .                              :
 DATE     .                              :
 API      .                              :
#
~Curve Information Section
#MNEM     .UNIT               Curve #DESCRIPTION
#-----    -----               ----   --------------
 DEPTH    .M                  : 1     Name = Domain Curve - Type = DEPTH
 CALI     .in                 : 2     Name = Caliper_1 - Type = Caliper
 RHOB     .g/cc               : 3     Name = Density_1 - Type = Density
 GR       .API                : 4     Name = Gamma Ray_math - Type = Gamma Ray
 DT       .us/ft              : 5     Name = P-wave_1 - Type = P-wave
 DT       .us/ft              : 6     Name = P-wave_corr - Type = P-wave
 UNKNOWN  .fraction           : 7     Name = Porosity_1 - Type = Porosity
~A (ASCII LOG DATA)
# ...
 1490.0090         12.5935          2.0129         38.5183        163.7921        162.5201       -999.2500
 1490.1610         12.6342          2.0113         38.5183        163.7955        162.5324       -999.2500
 1490.3140         12.6487          2.0036         38.5183        163.8025        162.5435       -999.2500
 1490.4659         12.8293          2.0000         34.8481        163.8094        162.5543       -999.2500
 1490.6180         13.3442          1.9956         34.6328        163.8165        162.5709       -999.2500
 1490.7710         13.6249          2.0050         34.4461        163.8235        162.5779       -999.2500
 1490.9230         12.6709          2.0167         34.4461        163.8330        162.5986       -999.2500
 1491.0760         12.4113          2.0404         34.4461        163.8169        162.5836       -999.2500
 1491.2280         12.3648          2.0374         34.1861        163.7915        162.5678       -999.2500
 1491.3800         12.3489          2.0288         34.5161        163.7662        162.5440       -999.2500
 1491.5330         12.3379          2.0324         34.5161        163.7352        162.5204       -999.2500
 1491.6851         12.3481          2.0572         34.4318        163.7336        162.5247       -999.2500
 1491.8380         12.2967          2.0477         34.1861        163.7316        162.5263       -999.2500
 1491.9900         12.3092          2.0498         34.4318        163.7296        162.5316       -999.2500
 1492.1420         12.3246          2.0419         34.4318        163.7265        162.5322       -999.2500
 1492.2950         12.3779          2.0343         38.0333        163.7297        162.5435       -999.2500
 1492.4470         12.3781          2.0405         39.4225        163.7367        162.5508       -999.2500
 1492.6000         12.3366          2.0192         39.5190        163.7437        162.5704       -999.2500
 1492.7520         12.3452          2.0003         39.5190        163.7507        162.5769       -999.2500
 1492.9041         12.3890          2.0088         39.5190        163.7577        162.5918       -999.2500
 1493.0570         12.4613          2.0207         39.5190        163.7647        162.6038       -999.2500
 1493.2090         12.4552          2.0155         42.0337        163.7722        162.6157       -999.2500
 1493.3621         12.5460          2.0054         42.0337        163.7847        162.6354       -999.2500
 1493.5140         12.8478          1.9889         42.0337        163.7981        162.6508       -999.2500
 1493.6660         13.5752          1.9819         39.4831        163.8116        162.6731       -999.2500
 1493.8190         13.3870          1.9520         39.1027        163.8288        162.6904       -999.2500
 1493.9709         12.8935          1.9149         35.3965        163.8548        162.7297       -999.2500
 1494.1240         13.4696          1.8487         35.2380        163.8809        162.7535       -999.2500
 1494.2760         13.9639          1.7824         35.0681        163.8987        162.7813       -999.2500
 1494.4280         14.1201          1.7531         32.8709        163.9057        162.7918       -999.2500
 1494.5811         14.9438          1.7438         28.0497        163.9141        162.8051       -999.2500
 1494.7330         15.8643          1.7547         25.5307        163.8993        162.7956       -999.2500
 1494.8860         18.1350          1.7501         21.3246        163.8806        162.7820       -999.2500
 1495.0380         19.8542          1.7230         20.7604        163.8574        162.7655       -999.2500
 1495.1899         21.1167          1.6660         19.8544        163.8486        162.7578       -999.2500
 1495.3430         21.0390          1.6759         19.7453        163.8370        162.7572       -999.2500
 1495.4950         20.7349          1.7235         19.7453        163.8234        162.7428       -999.2500
 1495.6479         20.8440          1.7783         19.8544        163.8407        162.7700       -999.2500
 1495.8000         20.0697          1.7681         20.4429        163.8618        162.7936       -999.2500
 1495.9520         22.0098          1.7099         20.7621        163.8817        162.8197       -999.2500
 1496.1050         21.7853          1.6966         20.9206        163.9131        162.8553       -999.2500
 1496.2570         21.2325          1.7382         20.9206        163.9429        162.8897       -999.2500
 1496.4100         22.8002          1.7768         20.9206        163.9837        162.9378       -999.2500
 1496.5620         22.0895          1.7768         22.5594        163.9475        162.9029       -999.2500
 1496.7140         21.5478          1.7634         23.2458        163.8900        162.8548       -999.2500
 1496.8669         22.4099          1.7482         23.2458        163.8238        162.7897       -999.2500
 1497.0190         21.9681          1.7600         23.2458        163.8036        162.7787       -999.2500
 1497.1720         22.6665          1.7711         22.5602        163.7635        162.7405       -999.2500
 1497.3240         21.2537          1.8218         20.4446        163.7657        162.7495       -999.2500
 1497.4760         17.6147          1.8933         20.4446        163.7727        162.7594       -999.2500
 1497.6290         18.8139          1.9761         20.4446        163.7785        162.7716       -999.2500
 1497.7810         17.5592          1.9716         21.4442        163.7876        162.7855       -999.2500
 1497.9340         18.9050          1.9350         22.5032        163.6268        162.6274       -999.2500
 1498.0861         21.2215          1.8971         23.4180        163.4420        162.4518       -999.2500
 1498.2380         20.7298          1.8607         23.4180        161.9034        160.9125       -999.2500
 1498.3910         20.2679          1.8602         23.4180        154.9032        153.9230       -999.2500
 1498.5430         19.4212          1.8019         20.9907        160.7489        159.7688       -999.2500
 1498.6960         20.1532          1.8100         20.9907        163.7940        162.8232       -999.2500
 1498.8480         19.2549          1.8456         20.9907        163.8368        162.8676       -999.2500
 1499.0000         18.5693          1.8731         22.6953        163.7638        162.8005       -999.2500
 1499.1530         18.8690          1.7812         26.1417        162.8589        161.9017       -999.2500
 1499.3051         17.8993          1.7910         28.4364        161.8508        160.8956       -999.2500
 1499.4580         17.0930          1.8276         28.5813        163.7067        162.7590       -999.2500
 1499.6100         17.7779          1.8831         28.5813        163.7538        162.8085       -999.2500
 1499.7620         17.6554          1.8786         28.5813        163.7604        162.8235       -999.2500
 1499.9150         17.6254          1.8407         27.5508        163.8182        162.8809       -999.2500
 3150.0000       -999.2500       -999.2500       -999.2500       -999.2500        163.9093       -999.2500
