~VERSION INFORMATION
 VERS.                          2.0   : CWLS LOG ASCII STANDARD - VERSION 2.0
 WRAP.                          NO    : ONE LINE PER DEPTH STEP
#
~Well Information Section
#MNEM     .UNIT     DATA                DESCRIPTION
#-----    -----     --------            --------------
 STRT     .M        30.0000             : START DEPTH
 STOP     .M        3150.0000           : END DEPTH
 STEP     .M        0.0000              : INCREMENT DEPTH
 NULL     .         -999.2500           : NULL VALUE
 COMP     .                              :
 WELL     .         F02-01              : WELL NAME
 EKB      .M        30.0000             : KELLY BUSHING ELEVATION
 EGL      .M        0.0000              : GROUND LEVEL ELEVATION
 EPD      .M        0.0000              : PERMANENT DATUM ELEVATION
 FLD      .                              :
 LOC      . X = 606554.0000 Y = 6080126.0000: WELL LOCATION
 PROV     .                              :
 SRVC     .                              :
 PROV     .                              :
 DATE     .                              :
 API      .                              :
#
~Curve Information Section
#MNEM     .UNIT               Curve #DESCRIPTION
#-----    -----               ----   --------------
 DEPTH    .M                  : 1     Name = Domain Curve - Type = DEPTH
 CALI     .in                 : 2     Name = Caliper_1 - Type = Caliper
 RHOB     .g/cc               : 3     Name = Density_1 - Type = Density
 GR       .API                : 4     Name = Gamma Ray_math - Type = Gamma Ray
 DT       .us/ft              : 5     Name = P-wave_1 - Type = P-wave
 DT       .us/ft              : 6     Name = P-wave_corr - Type = P-wave
 UNKNOWN  .fraction           : 7     Name = Porosity_1 - Type = Porosity
~A (ASCII LOG DATA)
# ...
  918.5090         12.8141          2.2240         55.1091        140.5501        165.3549          0.2663
  918.6610         12.8173          2.1992         56.3257        140.5598        165.3851          0.2818
  918.8140         12.8191          2.2041         57.5310        140.5886        165.4071          0.2787
  918.9660         12.8152          2.2034         57.8686        141.2125        166.0334          0.2791
  919.1180         12.8064          2.1878         58.2579        142.6236        167.4607          0.2889
  919.2710         12.7957          2.2039         58.2579        144.6668        169.5074          0.2788
  919.4230         12.7878          2.2080         57.8686        144.5745        169.4227          0.2763
  919.5760         12.7728          2.2018         56.5107        144.1445        168.9967          0.2801
  919.7280         12.7624          2.2137         56.5107        143.1989        168.0491          0.2727
  919.8800         12.7538          2.2232         56.5107        142.2701        167.1387          0.2667
  920.0330         12.7557          2.2123         57.3056        140.8954        165.7605          0.2736
  920.1850         12.7633          2.2065         57.3056        139.6478        164.5102          0.2772
  920.3380         12.7722          2.2238         57.3056        139.8179        164.6929          0.2664
  920.4900         12.7819          2.2149         57.3056        140.2289        165.1131          0.2719
  920.6420         12.7898          2.1993         57.0810        140.9731        165.8560          0.2817
  920.7950         12.7963          2.2002         56.4225        141.6499        166.5459          0.2811
  920.9470         12.7926          2.1858         56.2182        142.0873        166.9782          0.2901
  921.1000         12.7810          2.1673         56.0814        143.3633        168.2544          0.3017
  921.2520         12.7933          2.1709         56.0800        144.2258        169.1379          0.2994
  921.4040         12.7932          2.1777         56.0800        144.8005        169.6975          0.2952
  921.5570         12.7929          2.1770         56.0800        146.2669        171.1740          0.2956
  921.7090         12.7870          2.1870         56.2214        147.1710        172.0889          0.2894
  921.8620         12.7690          2.1891         56.9982        147.2329        172.1456          0.2881
  922.0140         12.7749          2.1845         57.7263        146.6394        171.5638          0.2909
  922.1660         12.7975          2.1987         57.7263        146.7404        171.6557          0.2821
  922.3190         12.8136          2.1884         58.4307        147.1146        172.0343          0.2885
  922.4710         12.8023          2.1815         57.7251        148.0268        172.9608          0.2928
  922.6240         12.8086          2.1668         57.7251        148.9778        173.9061          0.3020
  922.7760         12.8217          2.1735         55.9002        148.9307        173.8525          0.2978
  922.9280         12.8251          2.2027         55.9002        148.5168        173.4555          0.2796
  923.0810         12.8268          2.1776         55.8598        147.7048        172.6384          0.2953
  923.2330         12.8252          2.1671         54.3284        147.8383        172.7802          0.3018
  923.3860         12.8229          2.1877         54.3284        148.4399        173.3774          0.2889
  923.5380         12.8193          2.1949         54.3284        149.1699        174.1042          0.2844
  923.6900         12.8140          2.2024         54.3284        149.6936        174.6399          0.2798
  923.8430         12.8068          2.1834         54.8321        150.2173        175.1579          0.2916
  923.9950         12.8120          2.2058         55.1683        151.1497        176.0851          0.2776
  924.1480         12.8091          2.2142         55.1683        150.8531        175.7965          0.2724
  924.3000         12.7998          2.1982         54.8321        149.6896        174.6409          0.2824
  924.4520         12.7806          2.1986         54.8321        148.1373        173.0783          0.2821
  924.6050         12.7836          2.2065         54.5758        145.3984        170.3533          0.2772
  924.7570         12.7899          2.1976         54.5758        143.3228        168.2641          0.2828
  924.9100         12.7691          2.1864         55.0508        142.8618        167.8045          0.2898
  925.0620         12.7418          2.1719         55.3390        142.9671        167.9229          0.2988
  925.2140         12.8271          2.1764         55.9451        143.4383        168.3773          0.2960
  925.3670         12.8220          2.1833         55.9451        143.3598        168.3056          0.2917
  925.5190         12.8577          2.1920         55.9451        143.3984        168.3500          0.2863
  925.6720         12.9210          2.1963         55.7750        144.1347        169.0793          0.2836
  925.8240         12.9189          2.1798         54.3307        145.0518        170.0031          0.2939
  925.9760         12.9147          2.1692         54.3307        146.1882        171.1282          0.3005
  926.1290         12.8867          2.1639         55.1011        147.1434        172.0852          0.3038
  926.2810         12.7924          2.1740         55.1011        147.8738        172.8226          0.2975
  926.4340         12.7941          2.1767         55.1011        148.8404        173.7804          0.2958
  926.5860         12.7987          2.1814         55.1011        148.8290        173.7621          0.2929
  926.7380         12.7892          2.1928         53.6933        148.8007        173.7434          0.2857
  926.8910         12.7770          2.1871         53.6933        147.7546        172.6909          0.2893
  927.0430         12.7626          2.1917         53.6933        147.7813        172.7109          0.2864
  927.1960         12.7643          2.2060         54.0996        147.9488        172.8919          0.2775
  927.3480         12.7686          2.1934         56.3965        147.9872        172.9138          0.2854
  927.5000         12.7753          2.2024         56.3965        147.6514        172.5864          0.2798
  927.6530         12.7822          2.2403         56.3965        146.9801        171.9059          0.2561
  927.8050         12.8031          2.2470         55.9753        145.6457        170.5617          0.2519
  927.9580         12.8026          2.2439         54.4031        144.6153        169.5367          0.2538
  928.1100         12.7925          2.2234         53.0668        142.6776        167.6007          0.2666
  928.2620         12.7658          2.2273         52.4203        140.8369        165.7505          0.2642
  928.4150         12.7397          2.2324         52.4203        138.0000        162.9204          0.2610
  928.5670         12.8175          2.2370         50.9029        138.5009        163.4076          0.2581
  928.7200         12.8368          2.2110         50.9029        139.5027        164.4039          0.2744
  928.8720         12.8176          2.2174         50.9029        139.9938        164.9080          0.2704
  929.0240         12.7935          2.2240         51.6717        141.1476        166.0397          0.2663
  929.1770         12.8321          2.1898         54.2753        141.0443        165.9386          0.2876
  929.3290         12.8301          2.1975         54.2753        140.7725        165.6726          0.2828
  929.4820         12.8208          2.1945         54.2753        141.8953        166.7819          0.2847
  929.6340         12.8090          2.1817         55.2420        142.1095        167.0032          0.2927
  929.7860         12.8039          2.1826         53.7660        142.2532        167.1272          0.2921
