~VERSION INFORMATION
 VERS.                          2.0   : CWLS LOG ASCII STANDARD - VERSION 2.0
 WRAP.                          NO    : ONE LINE PER DEPTH STEP
#
~Well Information Section
#MNEM     .UNIT     DATA                DESCRIPTION
#-----    -----     --------            --------------
 STRT     .M        30.0000             : START DEPTH
 STOP     .M        3150.0000           : END DEPTH
 STEP     .M        0.0000              : INCREMENT DEPTH
 NULL     .         -999.2500           : NULL VALUE
 COMP     .                              :
 WELL     .         F02-01              : WELL NAME
 EKB      .M        30.0000             : KELLY BUSHING ELEVATION
 EGL      .M        0.0000              : GROUND LEVEL ELEVATION
 EPD      .M        0.0000              : PERMANENT DATUM ELEVATION
 FLD      .                              :
 LOC      . X = 606554.0000 Y = 6080126.0000: WELL LOCATION
 PROV     .                              :
 SRVC     .                              :
 PROV     .                              :
 DATE     .                              :
 API      .                              :
#
~Curve Information Section
#MNEM     .UNIT               Curve #DESCRIPTION
#-----    -----               ----   --------------
 DEPTH    .M                  : 1     Name = Domain Curve - Type = DEPTH
 CALI     .in                 : 2     Name = Caliper_1 - Type = Caliper
 RHOB     .g/cc               : 3     Name = Density_1 - Type = Density
 GR       .API                : 4     Name = Gamma Ray_math - Type = Gamma Ray
 DT       .us/ft              : 5     Name = P-wave_1 - Type = P-wave
 DT       .us/ft              : 6     Name = P-wave_corr - Type = P-wave
 UNKNOWN  .fraction           : 7     Name = Porosity_1 - Type = Porosity
~A (ASCII LOG DATA)
# ...
  815.6390         13.0048          2.2758         55.8747        134.3161        149.1303          0.2339
  815.7910         13.0178          2.3031         55.5963        134.1068        148.9213          0.2168
  815.9440         13.0300          2.3027         54.6454        133.9085        148.7329          0.2171
  816.0960         13.0349          2.2935         54.6454        133.0511        147.8677          0.2228
  816.2480         13.0020          2.2827         54.6391        132.9151        147.7390          0.2296
  816.4010         12.9704          2.2725         53.1591        131.9866        146.8065          0.2359
  816.5530         12.9515          2.2776         53.1591        131.6399        146.4562          0.2327
  816.7060         12.9456          2.2828         53.1591        131.7255        146.5462          0.2295
  816.8580         12.9745          2.2795         53.3013        131.6530        146.4780          0.2316
  817.0100         13.0392          2.2828         53.3419        131.2254        146.0449          0.2295
  817.1630         13.0391          2.2595         53.3419        131.0510        145.8724          0.2441
  817.3150         13.0391          2.2418         53.3419        130.0477        144.8726          0.2551
  817.4680         13.0610          2.2590         52.2667        130.4101        145.2311          0.2444
  817.6200         13.0452          2.2783         48.9461        130.9690        145.7936          0.2323
  817.7720         13.0157          2.2764         48.9461        131.5950        146.4115          0.2335
  817.9250         12.9860          2.2679         48.9461        131.5619        146.3813          0.2388
  818.0770         12.9751          2.2536         49.1723        131.0235        145.8487          0.2478
  818.2300         13.0218          2.2480         49.8088        129.4912        144.3069          0.2513
  818.3820         13.0445          2.2705         49.8644        128.2880        143.1033          0.2372
  818.5340         13.0753          2.2657         49.8644        127.5981        142.4187          0.2402
  818.6870         13.1365          2.2280         49.1723        126.9738        141.7883          0.2638
  818.8390         13.1915          2.2396         46.1061        126.8625        141.6808          0.2565
  818.9920         13.2252          2.2492         46.0539        127.2300        142.0408          0.2505
  819.1440         13.2395          2.2441         46.0070        127.4960        142.3032          0.2537
  819.2960         13.2668          2.2277         45.3734        127.6787        142.4931          0.2639
  819.4490         13.3760          2.2357         45.0799        127.8954        142.7010          0.2589
  819.6010         13.3189          2.2519         45.0799        128.0267        142.8301          0.2488
  819.7540         13.2509          2.2466         45.0799        129.1840        143.9878          0.2521
  819.9060         13.1607          2.2541         45.0799        129.7654        144.5716          0.2474
  820.0580         13.0298          2.2650         45.2961        131.1541        145.9499          0.2406
  820.2110         13.1073          2.2726         45.2961        131.5979        146.4050          0.2359
  820.3630         13.1255          2.2581         44.9516        130.9955        145.7866          0.2449
  820.5160         13.0817          2.2662         44.5790        130.0651        144.8598          0.2399
  820.6680         13.0012          2.2655         44.9516        129.5215        144.3187          0.2403
  820.8200         12.9654          2.2656         44.9516        130.3241        145.1106          0.2403
  820.9730         12.9388          2.2508         46.5641        130.0760        144.8632          0.2495
  821.1250         12.9093          2.2396         48.4641        130.1208        144.9103          0.2565
  821.2780         12.9153          2.2286         48.4641        130.2621        145.0455          0.2634
  821.4300         12.9381          2.2288         48.4641        130.4064        145.1830          0.2632
  821.5820         12.9874          2.2255         46.2215        130.7088        145.4920          0.2653
  821.7350         12.9921          2.2309         43.0245        130.7772        145.5525          0.2619
  821.8870         13.0600          2.2455         41.9092        130.6036        145.3768          0.2528
  822.0400         13.1348          2.2454         41.1775        130.4303        145.2060          0.2529
  822.1920         13.1435          2.2097         38.6200        130.6779        145.4456          0.2752
  822.3440         13.1736          2.2029         38.6200        131.2543        146.0239          0.2794
  822.4970         13.2338          2.1920         38.6200        132.2460        147.0096          0.2863
  822.6490         13.2387          2.1900         39.1900        132.8643        147.6214          0.2875
  822.8020         13.2864          2.2011         40.4526        132.7035        147.4695          0.2806
  822.9540         13.4128          2.2230         40.4526        131.5968        146.3494          0.2669
  823.1060         13.3616          2.2211         40.4526        130.2248        144.9747          0.2681
  823.2590         13.1699          2.2111         41.4250        130.3168        145.0746          0.2743
  823.4110         13.1054          2.2393         41.8917        131.0298        145.7736          0.2567
  823.5640         13.0538          2.2277         42.4841        131.6296        146.3755          0.2639
  823.7160         12.9767          2.2209         44.4781        132.6285        147.3735          0.2682
  823.8680         12.9142          2.2344         45.0748        132.9307        147.6663          0.2597
  824.0210         12.9306          2.2415         45.0748        132.2811        147.0173          0.2553
  824.1730         12.9498          2.2445         44.4781        131.1752        145.9129          0.2534
  824.3260         12.9431          2.2054         43.2242        130.7330        145.4642          0.2779
  824.4780         12.9472          2.2115         42.2275        130.7868        145.5117          0.2741
  824.6300         12.9688          2.2077         41.7266        131.0981        145.8285          0.2764
  824.7830         13.0118          2.2160         40.9338        131.7027        146.4228          0.2712
  824.9350         12.9932          2.2233         40.6498        132.5021        147.2266          0.2667
  825.0880         12.9343          2.2188         39.9004        132.4294        147.1443          0.2695
  825.2400         12.9207          2.2288         39.9004        132.8047        147.5146          0.2632
  825.3920         12.9312          2.2423         40.6498        133.0540        147.7699          0.2548
  825.5450         12.9435          2.2524         41.0234        133.2463        147.9513          0.2485
  825.6970         12.9329          2.2612         42.2709        133.1921        147.8948          0.2430
  825.8500         12.9273          2.2553         44.1207        132.9164        147.6228          0.2467
  826.0020         12.9252          2.2742         44.6120        132.3318        147.0290          0.2349
  826.1540         12.9818          2.2670         45.0758        132.2971        146.9951          0.2394
  826.3070         13.0021          2.2521         45.8063        131.9913        146.6852          0.2487
  826.4590         13.0114          2.2425         45.9736        131.5217        146.2053          0.2547
  826.6120         13.0138          2.2468         45.9736        131.8665        146.5539          0.2520
  826.7640         13.0100          2.2443         47.3830        131.8487        146.5353          0.2536
  826.9160         13.0184          2.2561         47.3830        131.9191        146.5980          0.2462
