~VERSION INFORMATION
 VERS.                          2.0   : CWLS LOG ASCII STANDARD - VERSION 2.0
 WRAP.                          NO    : ONE LINE PER DEPTH STEP
#
~Well Information Section
#MNEM     .UNIT     DATA                DESCRIPTION
#-----    -----     --------            --------------
 STRT     .M        30.0000             : START DEPTH
 STOP     .M        3150.0000           : END DEPTH
 STEP     .M        0.0000              : INCREMENT DEPTH
 NULL     .         -999.2500           : NULL VALUE
 COMP     .                              :
 WELL     .         F02-01              : WELL NAME
 EKB      .M        30.0000             : KELLY BUSHING ELEVATION
 EGL      .M        0.0000              : GROUND LEVEL ELEVATION
 EPD      .M        0.0000              : PERMANENT DATUM ELEVATION
 FLD      .                              :
 LOC      . X = 606554.0000 Y = 6080126.0000: WELL LOCATION
 PROV     .                              :
 SRVC     .                              :
 PROV     .                              :
 DATE     .                              :
 API      .                              :
#
~Curve Information Section
#MNEM     .UNIT               Curve #DESCRIPTION
#-----    -----               ----   --------------
 DEPTH    .M                  : 1     Name = Domain Curve - Type = DEPTH
 CALI     .in                 : 2     Name = Caliper_1 - Type = Caliper
 RHOB     .g/cc               : 3     Name = Density_1 - Type = Density
 GR       .API                : 4     Name = Gamma Ray_math - Type = Gamma Ray
 DT       .us/ft              : 5     Name = P-wave_1 - Type = P-wave
 DT       .us/ft              : 6     Name = P-wave_corr - Type = P-wave
 UNKNOWN  .fraction           : 7     Name = Porosity_1 - Type = Porosity
~A (ASCII LOG DATA)
# ...
  728.9230         12.7375          2.1380         77.0553       -999.2500       -999.2500          0.3200
  729.0760         12.7260          2.1577         77.0553       -999.2500       -999.2500          0.3077
  729.2280         12.7205          2.1666         75.4466       -999.2500       -999.2500          0.3021
  729.3800         12.7338          2.1665         73.8745       -999.2500       -999.2500          0.3022
  729.5330         12.7479          2.1598         73.4547       -999.2500       -999.2500          0.3064
  729.6850         12.8064          2.1482         73.4547       -999.2500       -999.2500          0.3136
  729.8340       -999.2500       -999.2500       -999.2500       -999.2500        158.2233       -999.2500
  729.8380         12.9660          2.1178         73.8745       -999.2500       -999.2500          0.3326
  729.9900         12.7817          2.0901         73.9321       -999.2500       -999.2500          0.3499
  730.1420         12.6958          2.1005         76.9325       -999.2500       -999.2500          0.3434
  730.2950         12.6934          2.0775         79.0009       -999.2500       -999.2500          0.3578
  730.4470         12.7088          2.0820         80.4111       -999.2500       -999.2500          0.3550
  730.6000         12.6293          2.0922         80.9682       -999.2500       -999.2500          0.3486
  730.7520         12.6493          2.0978         81.9373       -999.2500       -999.2500          0.3451
  730.8340       -999.2500       -999.2500       -999.2500       -999.2500        157.9971       -999.2500
  730.9040         12.6612          2.1010         82.6897       -999.2500       -999.2500          0.3431
  731.0570         12.6662          2.1157         82.9297       -999.2500       -999.2500          0.3339
  731.2090         12.6630          2.0993         82.9297       -999.2500       -999.2500          0.3442
  731.3620         12.6654          2.1012         82.9297       -999.2500       -999.2500          0.3430
  731.5140         12.6723          2.1067         81.7579       -999.2500       -999.2500          0.3396
  731.6660         12.6694          2.1202         81.6012       -999.2500       -999.2500          0.3311
  731.8190         12.6700          2.1445         80.6982       -999.2500       -999.2500          0.3159
  731.8340       -999.2500       -999.2500       -999.2500       -999.2500        157.7752       -999.2500
  731.9710         12.6777          2.1424         80.5705       -999.2500       -999.2500          0.3172
  732.1240         12.6754          2.1156         77.5354       -999.2500       -999.2500          0.3340
  732.2760         12.6775          2.1248         77.5354       -999.2500       -999.2500          0.3283
  732.4280         12.6801          2.1480         77.5354       -999.2500       -999.2500          0.3137
  732.5810         12.6802          2.1449         77.5354       -999.2500       -999.2500          0.3157
  732.7330         12.6784          2.1302         77.5081       -999.2500       -999.2500          0.3249
  732.8340       -999.2500       -999.2500       -999.2500       -999.2500        157.5551       -999.2500
  732.8860         12.6762          2.1114         77.2029       -999.2500       -999.2500          0.3366
  733.0380         12.6741          2.0974         76.9909       -999.2500       -999.2500          0.3454
  733.1900         12.6755          2.0906         76.9909       -999.2500       -999.2500          0.3496
  733.3430         12.6743          2.0768         77.2029       -999.2500       -999.2500          0.3582
  733.4950         12.6724          2.0826         78.5326       -999.2500       -999.2500          0.3546
  733.6480         12.6726          2.0921         78.9402       -999.2500       -999.2500          0.3487
  733.8000         12.6754          2.1060         78.9907       -999.2500       -999.2500          0.3400
  733.8340       -999.2500       -999.2500       -999.2500       -999.2500        157.3369       -999.2500
  733.9520         12.6781          2.1105         78.9907       -999.2500       -999.2500          0.3372
  734.1050         12.6794          2.0963         79.9840       -999.2500       -999.2500          0.3461
  734.2570         12.6874          2.1092         81.6421       -999.2500       -999.2500          0.3380
  734.4100         12.6804          2.1227         83.0052       -999.2500       -999.2500          0.3296
  734.5620         12.6724          2.1173         83.7438       -999.2500       -999.2500          0.3329
  734.7140         12.6782          2.1249         84.1145       -999.2500       -999.2500          0.3282
  734.8340       -999.2500       -999.2500       -999.2500       -999.2500        157.1232       -999.2500
  734.8670         12.7070          2.1202         85.1899       -999.2500       -999.2500          0.3311
  735.0190         12.7294          2.1013         83.9656       -999.2500       -999.2500          0.3429
  735.1720         12.7355          2.1050         83.9656       -999.2500       -999.2500          0.3406
  735.3240         12.7445          2.1122         83.9656       -999.2500       -999.2500          0.3361
  735.4760         12.7342          2.1003         82.3668       -999.2500       -999.2500          0.3436
  735.6290         12.7213          2.1229         81.1384       -999.2500       -999.2500          0.3294
  735.7810         12.7300          2.1191         81.1384       -999.2500       -999.2500          0.3318
  735.8340       -999.2500       -999.2500       -999.2500       -999.2500        156.9116       -999.2500
  735.9340         12.7401          2.1297         82.3668       -999.2500       -999.2500          0.3252
  736.0860         12.7409          2.1186         82.5382       -999.2500       -999.2500          0.3321
  736.2380         12.7461          2.1090         82.5382       -999.2500       -999.2500          0.3381
  736.3910         12.7428          2.1007         82.5382       -999.2500       -999.2500          0.3433
  736.5430         12.7352          2.1036         80.5260       -999.2500       -999.2500          0.3415
  736.6960         12.7213          2.1071         80.5260       -999.2500       -999.2500          0.3393
  736.8340       -999.2500       -999.2500       -999.2500       -999.2500        156.7025       -999.2500
  736.8480         12.7265          2.1096         80.5260       -999.2500       -999.2500          0.3377
  737.0000         12.7276          2.1055         80.7668       -999.2500       -999.2500          0.3403
  737.1530         12.7331          2.1278         81.7929       -999.2500       -999.2500          0.3264
  737.3050         12.7399          2.1142         81.7929       -999.2500       -999.2500          0.3349
  737.4580         12.7444          2.1268         80.9489       -999.2500       -999.2500          0.3270
  737.6100         12.7461          2.1347         81.7929       -999.2500       -999.2500          0.3221
  737.7620         12.7451          2.1358         81.9449       -999.2500       -999.2500          0.3214
  737.8340       -999.2500       -999.2500       -999.2500       -999.2500        156.4982       -999.2500
  737.9150         12.7429          2.1238         81.9449       -999.2500       -999.2500          0.3289
  738.0670         12.7389          2.1239         82.7007       -999.2500       -999.2500          0.3288
  738.2200         12.7059          2.1414         82.7007       -999.2500       -999.2500          0.3179
  738.3720         12.7073          2.1294         81.9449       -999.2500       -999.2500          0.3254
  738.5240         12.7110          2.1446         80.3686       -999.2500       -999.2500          0.3159
  738.6770         12.7112          2.1243         79.8314       -999.2500       -999.2500          0.3286
  738.8290         12.7139          2.1291         79.8314       -999.2500       -999.2500          0.3256
