~VERSION INFORMATION
 VERS.                          2.0   : CWLS LOG ASCII STANDARD - VERSION 2.0
 WRAP.                          NO    : ONE LINE PER DEPTH STEP
#
~Well Information Section
#MNEM     .UNIT     DATA                DESCRIPTION
#-----    -----     --------            --------------
 STRT     .M        30.0000             : START DEPTH
 STOP     .M        3150.0000           : END DEPTH
 STEP     .M        0.0000              : INCREMENT DEPTH
 NULL     .         -999.2500           : NULL VALUE
 COMP     .                              :
 WELL     .         F02-01              : WELL NAME
 EKB      .M        30.0000             : KELLY BUSHING ELEVATION
 EGL      .M        0.0000              : GROUND LEVEL ELEVATION
 EPD      .M        0.0000              : PERMANENT DATUM ELEVATION
 FLD      .                              :
 LOC      . X = 606554.0000 Y = 6080126.0000: WELL LOCATION
 PROV     .                              :
 SRVC     .                              :
 PROV     .                              :
 DATE     .                              :
 API      .                              :
#
~Curve Information Section
#MNEM     .UNIT               Curve #DESCRIPTION
#-----    -----               ----   --------------
 DEPTH    .M                  : 1     Name = Domain Curve - Type = DEPTH
 CALI     .in                 : 2     Name = Caliper_1 - Type = Caliper
 RHOB     .g/cc               : 3     Name = Density_1 - Type = Density
 GR       .API                : 4     Name = Gamma Ray_math - Type = Gamma Ray
 DT       .us/ft              : 5     Name = P-wave_1 - Type = P-wave
 DT       .us/ft              : 6     Name = P-wave_corr - Type = P-wave
 UNKNOWN  .fraction           : 7     Name = Porosity_1 - Type = Porosity
~A (ASCII LOG DATA)
# ...
  539.3380         16.1000          1.6942         48.1246        173.9556        171.9025       -999.2500
  539.4900         16.1000          1.7219         48.1246        173.2015        171.1496       -999.2500
  539.6420         16.1000          1.7527         46.0349        171.7869        169.7420       -999.2500
  539.7950         16.1000          1.7727         45.4712        169.0806        167.0360       -999.2500
  539.9470         16.1000          1.7678         44.0570        167.2220        165.1847       -999.2500
  540.1000         16.1000          1.7764         40.4184        167.3793        165.3416       -999.2500
  540.2520         16.1000          1.7630         38.7401        167.2086        165.1779       -999.2500
  540.4040         16.1000          1.7409         38.7401        166.8904        164.8621       -999.2500
  540.5570         16.1000          1.7378         38.7401        166.3550        164.3298       -999.2500
  540.7090         16.1000          1.7063         42.3140        165.2744        163.2550       -999.2500
  540.8620         16.1000          1.7088         45.0047        163.6830        161.6655       -999.2500
  541.0140         16.1000          1.7191         45.9666        162.8849        160.8722       -999.2500
  541.1660         16.1000          1.7289         48.6498        162.4070        160.3955       -999.2500
  541.3190         16.1000          1.7522         55.0105        162.1745        160.1710       -999.2500
  541.4710         16.1000          1.7876         57.2410        161.9340        159.9300       -999.2500
  541.6240         16.1000          1.8383         62.5866        161.1652        159.1694       -999.2500
  541.7760         16.1000          1.8747         63.1964        160.8162        158.8219       -999.2500
  541.9280         16.1000          1.8688         64.5398        160.3429        158.3523       -999.2500
  542.0810         16.1000          1.8479         64.8780        160.6392        158.6545       -999.2500
  542.2330         16.1000          1.8174         65.0552        162.1809        160.1995       -999.2500
  542.3860         16.1000          1.8298         65.5483        164.3373        162.3598       -999.2500
  542.5380         16.1000          1.8823         65.8786        164.9066        162.9311       -999.2500
  542.6900         16.1000          1.9156         65.8786        164.0981        162.1303       -999.2500
  542.8430         16.1000          1.9145         65.8786        162.2238        160.2565       -999.2500
  542.9950         16.1000          1.9048         62.9396        159.1596        157.2008       -999.2500
  543.1480         16.1000          1.8816         59.3641        158.1569        156.1988       -999.2500
  543.3000         16.1000          1.8637         55.2017        160.0721        158.1213       -999.2500
  543.4520         16.1000          1.8094         53.5860        164.3215        162.3718       -999.2500
  543.6050         16.1000          1.7667         52.2780        166.3376        164.3928       -999.2500
  543.7570         16.1000          1.6843         49.7126        165.2571        163.3188       -999.2500
  543.9100         16.1000          1.6895         48.2501        162.8853        160.9481       -999.2500
  544.0620         16.1000          1.7749         47.0438        159.8443        157.9146          0.5469
  544.2140         16.1000          1.9084         46.2888        158.9885        157.0596          0.4635
  544.3670         16.1000          1.9544         46.2888        158.2685        156.3483          0.4348
  544.5190         16.1000          1.9698         46.2888        157.8477        155.9279          0.4251
  544.6720         16.1000          1.9867         49.5764        160.4990        158.5866          0.4146
  544.8240         16.1000          1.9722         57.6195        164.2435        162.3350          0.4236
  544.9760         16.1000          1.9865         67.5387        167.8328        165.9288          0.4147
  545.1290         16.1000          2.0567         67.5387        174.1753        172.2767          0.3708
  545.2810         16.1000          2.0550         67.5387        172.4410        170.5451          0.3719
  545.4340         16.1000          2.0457         65.8367        168.4042        166.5149          0.3777
  545.5860         16.1000          2.0361         60.9574        163.9116        162.0226          0.3837
  545.7380         16.1000          2.0033         56.9269        161.2334        159.3550          0.4042
  545.8910         16.1000          1.9961         55.3684        163.3630        161.4832          0.4087
  546.0430         16.1000          1.9309         52.8834        167.0315        165.1622          0.4494
  546.1960         16.1000          1.8496         50.2678        168.1765        166.3083          0.5003
  546.3480         16.1000          1.8588         46.8270        166.6136        164.7505          0.4945
  546.5000         16.1000          1.9051         43.9690        164.6245        162.7675          0.4656
  546.6530         16.1000          1.9496         40.1677        160.8330        158.9787          0.4378
  546.8050         16.1000          1.9274         30.6385        155.3752        153.5276          0.4516
  546.9580         16.1000          1.8786         30.6385        155.4768        153.6302          0.4821
  547.1100         16.1000          1.7959         30.6385        157.3479        155.5108          0.5338
  547.2620         16.1000          1.7680         33.4385        159.0965        157.2596          0.5512
  547.4150         16.1000          1.7208         42.9244        163.6410        161.8145          0.5807
  547.5670         16.1000          1.7278         48.8680        167.5167        165.6904          0.5764
  547.7200         16.1000          1.7641         55.1477        165.0330        163.2133          0.5537
  547.8720         16.1000          1.8852         58.7551        160.6804        158.8647          0.4780
  548.0240         16.1000          1.9845         58.7551        156.9623        155.1515          0.4159
  548.1770         16.1000          2.0015         58.7551        152.0619        150.2566          0.4053
  548.3290         16.1000          2.0001         57.6434        150.8572        149.0542          0.4062
  548.4820         16.1000          1.9748         57.6434        152.3442        150.5493          0.4220
  548.6340         16.1000          1.9193         57.6434        157.5582        155.7635          0.4567
  548.7860         16.1000          1.8715         60.1456        162.8185        161.0342          0.4866
  548.9390         16.1000          1.8838         60.4659        167.8381        166.0540          0.4789
  549.0910         16.1000          1.9296         60.4659        165.6683        163.8921          0.4502
  549.2440         16.1000          1.9944         60.4659        162.6270        160.8538          0.4097
  549.3960         16.1000          2.0430         59.7309        156.3841        154.6161          0.3794
  549.5480         16.1000          2.1238         59.2993        150.9520        149.1893          0.3289
  549.7010         16.1000          2.1205         59.2670        151.5826        149.8222          0.3309
  549.8530         16.1000          2.0999         59.2670        155.9202        154.1675          0.3438
  550.0060         16.1000          2.0706         59.2993        161.8024        160.0510          0.3621
  550.1580         16.1000          2.0551         58.5952        167.1146        165.3728          0.3718
  550.3100         16.1000          2.0399         60.0601        170.7725        169.0317          0.3813
  550.4630         16.1000          2.0461         60.2175        166.7122        164.9789          0.3774
  550.6150         16.1000          2.0507         60.2175        162.2788        160.5490          0.3746
