~VERSION INFORMATION
 VERS.                          2.0   : CWLS LOG ASCII STANDARD - VERSION 2.0
 WRAP.                          NO    : ONE LINE PER DEPTH STEP
#
~Well Information Section
#MNEM     .UNIT     DATA                DESCRIPTION
#-----    -----     --------            --------------
 STRT     .M        30.0000             : START DEPTH
 STOP     .M        3150.0000           : END DEPTH
 STEP     .M        0.0000              : INCREMENT DEPTH
 NULL     .         -999.2500           : NULL VALUE
 COMP     .                              :
 WELL     .         F02-01              : WELL NAME
 EKB      .M        30.0000             : KELLY BUSHING ELEVATION
 EGL      .M        0.0000              : GROUND LEVEL ELEVATION
 EPD      .M        0.0000              : PERMANENT DATUM ELEVATION
 FLD      .                              :
 LOC      . X = 606554.0000 Y = 6080126.0000: WELL LOCATION
 PROV     .                              :
 SRVC     .                              :
 PROV     .                              :
 DATE     .                              :
 API      .                              :
#
~Curve Information Section
#MNEM     .UNIT               Curve #DESCRIPTION
#-----    -----               ----   --------------
 DEPTH    .M                  : 1     Name = Domain Curve - Type = DEPTH
 CALI     .in                 : 2     Name = Caliper_1 - Type = Caliper
 RHOB     .g/cc               : 3     Name = Density_1 - Type = Density
 GR       .API                : 4     Name = Gamma Ray_math - Type = Gamma Ray
 DT       .us/ft              : 5     Name = P-wave_1 - Type = P-wave
 DT       .us/ft              : 6     Name = P-wave_corr - Type = P-wave
 UNKNOWN  .fraction           : 7     Name = Porosity_1 - Type = Porosity
~A (ASCII LOG DATA)
# ...
 1204.2590         12.7977          2.1288         75.6966        151.0877        148.4220          0.3258
 1204.4110         12.6781          2.1135         75.6966        153.3693        150.6598          0.3353
 1204.5640         12.6975          2.1210         75.6966        154.2845        151.5763          0.3306
 1204.7159         12.6215          2.1245         75.8145        155.9030        153.1535          0.3284
 1204.8680         12.6240          2.1552         75.8145        157.3828        154.6240          0.3092
 1205.0210         12.6329          2.1541         76.7697        158.8275        156.0441          0.3099
 1205.1730         12.6419          2.1466         77.1796        159.8293        157.0243          0.3146
 1205.3260         12.6523          2.1390         77.1796        160.4410        157.6202          0.3194
 1205.4780         12.6612          2.1453         77.1796        159.6089        156.7593          0.3154
 1205.6300         12.6596          2.1489         75.5705        157.6560        154.7986          0.3132
 1205.7830         12.6654          2.1468         71.0761        156.7845        153.8898          0.3145
 1205.9351         12.6818          2.1759         70.4569        155.6038        152.7087          0.2963
 1206.0880         12.7089          2.1984         69.0900        154.6152        151.6811          0.2822
 1206.2400         12.7312          2.2067         69.0900        152.4816        149.5432          0.2771
 1206.3920         12.8540          2.2016         68.5354        150.4306        147.4601          0.2802
 1206.5450         13.1062          2.1647         68.3541        148.6810        145.7012          0.3033
 1206.6970         12.8635          2.1654         68.5354        144.2247        141.2208          0.3029
 1206.8500         13.5237          2.1725         69.3122        141.6361        138.6097          0.2984
 1207.0020         13.0129          2.1736         67.7379        140.4231        137.3864          0.2978
 1207.1541         13.4626          2.1615         69.3122        139.9709        136.9016          0.3053
 1207.3070         13.2915          2.1696         69.3747        139.6976        136.6299          0.3002
 1207.4590         13.5128          2.1532         70.1717        139.0943        135.9830          0.3105
 1207.6121         14.1067          2.1623         72.3197        139.3138        136.2025          0.3048
 1207.7640         14.3885          2.1409         74.2854        141.1517        138.0114          0.3182
 1207.9160         13.3631          2.1263         74.7907        143.9881        140.8389          0.3273
 1208.0690         13.5016          2.1503         76.0897        146.7976        143.6245          0.3123
 1208.2209         13.1839          2.1287         76.0897        149.1325        145.9420          0.3258
 1208.3740         13.2907          2.1118         76.0897        149.8260        146.6206          0.3364
 1208.5260         12.7308          2.1194         72.6270        150.9652        147.7350          0.3316
 1208.6780         12.8159          2.1239         71.0535        150.9298        147.6970          0.3288
 1208.8311         12.8077          2.1380         70.9284        151.7052        148.4349          0.3200
 1208.9830         13.0888          2.1530         69.1633        152.5973        149.3275          0.3106
 1209.1360         12.7507          2.1538         68.5912        151.2137        147.9107          0.3101
 1209.2880         12.7577          2.1416         68.5912        149.2978        145.9906          0.3178
 1209.4399         12.7333          2.1530         68.5912        148.2865        144.9556          0.3106
 1209.5930         12.7121          2.1837         71.8474        147.8369        144.4898          0.2914
 1209.7450         12.7500          2.1807         73.1414        147.9406        144.5821          0.2933
 1209.8979         12.8257          2.1149         73.3164        146.6748        143.2904          0.3344
 1210.0500         12.8324          2.0970         73.1414        146.2251        142.8381          0.3456
 1210.2020         12.8344          2.1054         73.1414        146.4914        143.0745          0.3404
 1210.3550         12.8280          2.1243         72.6185        147.2570        143.8358          0.3286
 1210.5070         12.8128          2.1343         70.9166        147.6239        144.1731          0.3223
 1210.6600         12.8409          2.1398         69.6539        146.6763        143.2211          0.3189
 1210.8120         12.8749          2.1106         69.6539        145.9455        142.4650          0.3371
 1210.9640         13.0413          2.0953         66.4888        145.0768        141.5901          0.3467
 1211.1169         13.4322          2.0868         66.4888        145.5160        142.0105          0.3520
 1211.2690         13.2814          2.0594         66.4888        147.3368        143.8103          0.3691
 1211.4220         13.1882          2.0827         64.2845        146.5585        143.0281          0.3546
 1211.5740         13.4264          2.1104         64.2845        145.8624        142.3034          0.3373
 1211.7260         13.6596          2.1050         64.2845        145.2881        141.7304          0.3406
 1211.8790         13.0388          2.1097         63.4973        144.0040        140.4116          0.3377
 1212.0310         12.9321          2.0825         60.5026        142.3452        138.7531          0.3547
 1212.1840         12.9683          2.0984         60.5026        141.3355        137.7200          0.3447
 1212.3361         13.0050          2.0823         60.5026        141.1587        137.5343          0.3548
 1212.4880         13.2898          2.0745         60.8502        142.5898        138.9481          0.3597
 1212.6410         14.0896          2.0403         61.1033        141.5269        137.8712          0.3811
 1212.7930         13.7565          2.0359         61.3949        141.7867        138.1184          0.3838
 1212.9460         12.9373          2.0293         62.1729        142.5453        138.8578          0.3879
 1213.0980         12.9806          2.0442         62.9341        144.2498        140.5568          0.3786
 1213.2500         13.4036          2.0772         64.2347        144.9719        141.2522          0.3580
 1213.4030         13.3220          2.0704         64.2347        144.2423        140.5219          0.3623
 1213.5551         12.8592          2.0454         64.4040        145.4545        141.7075          0.3779
 1213.7080         13.1797          2.0231         64.6042        147.7744        144.0260          0.3918
 1213.8600         13.6941          2.0441         65.5516        149.2734        145.5027          0.3787
 1214.0120         14.0105          2.0762         67.9579        150.9092        147.1304          0.3586
 1214.1650         12.7682          2.0762         70.2686        151.6874        147.8932          0.3586
 1214.3170         12.9791          2.0660         71.3732        152.7814        148.9710          0.3650
 1214.4700         13.6700          2.0941         71.3732        153.6584        149.8448          0.3474
 1214.6219         13.3602          2.1123         71.6984        153.1458        149.3049          0.3361
 1214.7740         13.2457          2.1283         71.3732        152.1975        148.3582          0.3261
 1214.9270         13.1702          2.1241         71.1779        153.0912        149.2261          0.3287
 1215.0790         13.1023          2.0981         70.7694        155.0529        151.1821          0.3449
 1215.2321         12.9930          2.1076         69.8208        156.1478        152.2618          0.3390
 1215.3840         12.9405          2.0815         69.5923        156.4712        152.5759          0.3553
 1215.5360         12.9586          2.0954         69.8136        156.2559        152.3458          0.3466
